Rede,Nome Fantasia,Logradouro,Bairro,Cep,Ddd,Telefone,Uf,Municipio,Codigo Unidade,Cnpj,Latitude,Longitude
Yamaha,BEZAMOTOS - QUIXA,AV. PLACIDO CASTELO  1495,CENTRO,63900-069,088,3412-0015,CE,QUIXADA,185,11082459000106,-4.9781327,-39.018799
Yamaha,VEREDA,AV. PADRE CICERO  3050-A,ANTONIO VIEIRA,63022-010,088,3102-3450,CE,JUAZEIRO DO NORTE,29,01411114000197,-7.226252,-39.3325295
Yamaha,FORTIM NAUTICA,CANTO DA BARRA  140 A ,BARRA,62815-000,088,3413-1585,CE,FORTIM,506,07802915000160,-4.4787776,-37.8724519
Yamaha,MOTOFACIL - SANTANA DE IPANEMA,RUA CORONEL LUCENA MARANHAO  90,MONUMENTO,57500-000,075,3623-8989,AL,SANTANA DO IPANEMA,421,32916685000298,-9.3725251,-37.2435238
Yamaha,MOTO POINT - PENEDO,AV. CANDIDO TOLEDO  546,SANTA LUZIA,57200-000,082,3551-4080,AL,PENEDO,174,10479115000164,-10.2874407,-36.5823896
Yamaha,DICASA MOTOS - URUACU,AVENIDA WEIMAR BARROSO  S/N,SAO SEBASTIAO,76400-000,062,3367-2135,GO,URUACU,394,21201147000209,-14.5226059,-49.1580542
Yamaha,MOTOVESA - RIO VERDE,AV. PRESIDENTE VARGAS  1630,JARDIM GOIAS,75903-290,062,3247-7607,GO,RIO VERDE,419,04215998000364,-17.7899077,-50.9229205
Yamaha,MARE MANSA,RUA JOAO NAVES DE AVILA  285,CENTRO,38400-600,034,3214-3734,MG,UBERLANDIA,533,25649674000142,-18.9281659,-48.2510067
Yamaha,USE MOTOS,AV. FLORIANO PEIXOTO  3283,BRASIL,38400-704,034,3211-7070,MG,UBERLANDIA,64,04119464000172,-18.8994698,-48.2619561
Yamaha,DICASA MOTOS,AV. FEDERAL  216,SETOR CENTRAL,76550-000,062,3367-2135,GO,PORANGATU,60,21201147000110,-13.3498444,-49.284143
Yamaha,DICASA MOTOS,AVENIDA FEDERAL  216,SETOR CENTRAL,76550-000,062, 3367-2135,GO,PORANGATU,496,21201147000110,-13.3498444,-49.284143
Yamaha,HP MOTONAUTICA,AV ALMIRANTE BARROSO 315,VILA SAO GERALDO,37030-320,035,3222-1746,MG,VARGINHA,513,00626625000163,-21.5414949,-45.44965939999999
Yamaha,NOVA MOTOS - VARGINHA,AVENIDA MINISTRO BIAS FORTES  180,CENTRO,37002-450,035,3214-3020,MG,VARGINHA,369,34161386000216,-21.5593267,-45.4415317
Yamaha,MARCOVEL XINGUA,AV. XINGU  231,CENTRO,68555-013,094,3426-2175,PA,XINGUARA,154,08133307000253,-7.101142,-49.950059
Yamaha,MARCOVEL MOTOS,AV. BELEM  S/N,RODOVIARIO,68385-000,094,3433-3533,PA,TUCUMA,141,08133307000172,-6.7529385,-51.1637781
Yamaha,TAPAJOS MOTOC.,AV. MENDONCA FURTADO  3514,LIBERDADE,68040-148,093,3523-4466,PA,SANTAREM,95,04932236000117,-2.424392,-54.721074
Yamaha,TAPAJOS MOTOCENTER,AV MENDONCA FURTADO 3500,ALDEIA,68040-050,093,3523-4523,PA,SANTAREM,586,04932236000460,-2.4237176,-54.7136345
Yamaha,CICLOVIA,"RUA JÚLIO DE CASTILHOS, 1945",GOIÁS,96810246,051,3713-1555,RS,SANTA CRUZ DO SUL,481,72037112000390,-29.7167649,-52.446714
Yamaha,CICLOVIA STA CR,RUA JULIO DE CASTILHOS  1945,GOIAS,96810-246,051,3713-1555,RS,SANTA CRUZ DO SUL,127,72037112000390,21.352384,-157.883805
Yamaha,MOTO ARTE - SANTA CRUZ,AVENIDA PREFEITO BRAZ DE LIRA  215,MALAQUIAS CARDOSO,55190-398,081,3136-2774,PE,SANTA CRUZ DO CAPIBARIBE,374,13240838000366,-7.9552448,-36.1994348
Yamaha,F. C. MOTOS NAUTICAS,AV. SENADOR VITORINO  960 - LOJA 9,RETIRO NATAL,65031-655,098,3256-0298,MA,SAO LUIS,66,04090529001419,-2.5406257,-44.28549779999999
Yamaha,F. C. MOTOS S LUIS,AV. JERONIMO DE ALBUQUERQUE MARANHAO  90,ANGELIM,65060-641,098,3256-0298,MA,SAO LUIS,124,04090529001257,-2.551632,-44.219157
Yamaha,FC MOTOS NAUTICAS,AV. SENADOR VITORINO FREIRE  960  LOJA 9,RETIRO NATAL,65031-655,098,3232-3553,MA,SAO LUIS,502,04090529001419,-2.5406257,-44.28549779999999
Yamaha,MUNDOSAM SAO LUIZ,AV. JERONIMO A MARANHAO  9 QD 27,VINHAIS,65074-199,098,3256-5150,MA,SAO LUIS,284,06032602001421,-2.521451,-44.248335
Yamaha,MOTOMIL,AV. DORGIVAL PINHEIRO DE SOUZA  1121,CENTRO,65903-270,099,3525-2329,MA,IMPERATRIZ,21,07494065000260,-5.5236421,-47.4765192
Yamaha,MOTOSHOW - IMPERATRIZ,AV PEDRO NEIVA DE SANTANA  3478,VILA REDENCAO,65910-345,094,9139-2411,MA,IMPERATRIZ,412,40974077000187,-5.4832783,-47.4379933
Yamaha,MUNDOSAM TIMON,AV. FRANCISCO CARLOS JANSEN  1487,PARQUE PIAUI,65631-240,086,3025-8368,MA,TIMON,296,06032602000107,-4.8618068,-43.3656252
Yamaha,CELSO MOTORCICLOS,R ALBERTO PASQUALINI  449  ANEXO 01 ,APARECIDA,99670-000,054,9163-7446,RS,RONDA ALTA ,474,90687203000190,-27.7934026,-52.7670021
Yamaha,F. C. MOTOS,AV. SANTOS DUMONT  4100,SAO SEBASTIAO,65400-000,099,3661-5256,MA,CODO,112,04090529000102,-4.477856,-43.895187
Yamaha,DISNOVE MOTOS,RUA DA CONCORDIA  460,SANTO ANTONIO,50020-050,081,3271-6868,PE,RECIFE,116,11696408000166,-8.0674921,-34.882126
Yamaha,DISNOVE MOTOS - CAXANGA,AV. CAXANGA  1107,ZUMBI,50720-655,081,3271-6868,PE,RECIFE,109,11696408000670,-8.0522338,-34.9183235
Yamaha,MOTOVIA,AV. MAL. MASCARENHAS DE MORAES 2244,IMBIRIBEIRA,51180-001,081,2129-0202,PE,RECIFE,211,05152701000160,-8.1108795,-34.9125242
Yamaha,RECIFE NAUTICA,ESTRADA DOS REMEDIOS   N 2034,AFOGADOS,50750-360,081,3226-4006,PE,RECIFE,574,70055702000158,-8.0758002,-34.9074128
Yamaha,TRACAO MOTOS,AV. CONSELHEIRO AGUIAR  476,BOA VIAGEM,51011-031,081,3445-1848,PE,RECIFE,359,28628169000100,-8.0947494,-34.8845277
Yamaha,TRACAO MOTOS - CASA AMARELA,RUA PADRE LEMOS  833,CASA AMARELA,52070-200,081,3445-2504,PE,RECIFE,385,28628169000290,-8.0209529,-34.9223251
Yamaha,CASA PARAIBA,AV. VILLE ROY  7405,SAO VICENTE,69303445,095,3224-9541,RR,BOA VISTA ,472,22895064000130,2.8100969,-60.682407
Yamaha,LIRA MOTO ,AV. MAJOR WILLIAMS  1088 ,SAO FRANCISCO ,69301-110,095,3224-6600,RR,BOA VISTA ,527,07277741000163,2.8281905,-60.6688629
Yamaha,LIRAMOTO,AV. MAJOR WILLIAMS  1088,SAO FRANCISCO,69301-110,095,3224-6600,RR,BOA VISTA,136,07277741000163,2.8281905,-60.6688629
Yamaha,LIRAMOTO - ASA BRANCA,AV. GENERAL ATAIDE TEIVE  4679,ASA BRANCA,69312-242,095,3625-8944,RR,BOA VISTA,206,07277741000244,2.8178275,-60.7220919
Yamaha,PICA PAU MOTOS  - JARDIM TROPICAL,AV. XV DE NOVEMBRO  195 - TERREO,JARDIM TROPICAL,76920-000,069,3461-1480,RO,OURO PRETO DO OESTE,215,02952164000225,-10.714945,-62.253195
Yamaha,MOTO STORE,AV. LEOBERTO LEAL  250,BARREIROS,88110-001,048,3380-6000,SC,SAO JOSE,388,37592691000170,-27.5724974,-48.6047236
Yamaha,TOTAL MOTOS SBS,RUA ANTONIO KAESEMODEL  674,BOEHMERWALD,89287-650,047,3633-3767,SC,SAO BENTO DO SUL,289,83851311000272,-26.2368971,-49.3947122
Yamaha,MOTOS NENO,AV. GOVERNADOR IVO SILVEIRA  56,CANTA GALO,89163-053,047,3531-0800,SC,RIO DO SUL,201,80082555000169,-27.2069875,-49.6294735
Yamaha,GERACAO MOTOS,RUA TENENTE FRANCISCO LEHMKUHL  S/N,CENTRO,88130-040,048,3286-5544,SC,PALHOCA,128,07589321000112,-27.640329,-48.665803
Yamaha,TOTAL MOTOS,AV. FREDERICO HEYSE  494,CENTRO,89300-184,047,3642-3667,SC,MAFRA,12,83851311000191,-26.1151284,-49.8076744
Yamaha,DE MARCO MOTOS,RUA CORONEL ARTUR PEREIRA  29,CENTRO,89600-000,049,3551 8990,SC,JOACABA,330,16791325000331,-27.1732427,-51.5099131
Yamaha,GERACAO MOTOS - LAGES,AV. PRESIDENTE VARGAS  1010,PONTE GRANDE,88523-476,048,3238-5112,SC,LAGES,429,07589321000465,-27.8122335,-50.3130807
Yamaha,ATIVA MOTOS,RUA DR. JOAO COLIN  2359,AMERICA,89204-005,047,3423-0057,SC,JOINVILLE,293,15078677000110,-26.2792479,-48.8497864
Yamaha,CASA MARINE,RUA D. FRANCISCA  1600 -,SAGUACU,89221-170,047,3028-0060,SC,JOINVILLE,471,07581701000100,-26.2841339,-48.8376116
Yamaha,SANAUTICA COMERCIO,RUA OTTOKAR DOERFFEL  1112 - LOJA 01,ATIRADORES,89203-212,047,3028-0888 ,SC,JOINVILLE,580,72151269000180,-26.3188137,-48.8656403
Yamaha,GERAÇÃO MOTOS - TUBARÃO,"RUA JOSE ALBERTO NUNES, 581 - SALA 1",SÃO JOÃO (MARGEM ESQUERDA),88708352,048,3238-5112,SC,TUBARÃO,613,43316120000105,-28.4728826,-49.0249512
Yamaha,ATIVA MOTOS - JARAGUA DO SUL,AV. PREFEITO WALDEMAR GRUBBA  3721,VIEIRA,89257-002,047,3307-2520,SC,JARAGUA DO SUL,389,15078677000209,-26.4772888,-49.048786
Yamaha,FRANCAR MOTOS,AV. BEIRA RIO  627,CENTRO,89896-000,049,3677-0741,SC,ITAPIRANGA,76,04545938000148,-27.1710136,-53.7098622
Yamaha,DVR MOTOS,AV. IRINEU BORNHAUSEN  944,SAO JOAO,88305-001,047,3046-0214,SC,ITAJAI,342,21578639000390,-26.8990542,-48.6737523
Yamaha,GERAÇÃO MOTOS,"RUA CANDIDO RAMOS, 110",CAPOEIRAS,88090800,48,3240-8484,SC,FLORIANÓPOLIS,619,08153200/000196,-27.5978017,-48.6012852
Yamaha,ALENAUTICA E. NAUTICOS,R. GENERAL EURICO GASPAR DUTRA  622,ESTREITO ,88075-100,048, 3244-4466,SC,FLORIANOPOLIS,450,82899378000133,-27.592006,-48.57509599999999
Yamaha,GERACAO - INGLESES,SRV TRES MARIAS  640,INGLESES DO RIO VERMELHO,88058-648,048,3298-0030,SC,FLORIANOPOLIS,418,08153200000510,-27.4386769,-48.4106688
Yamaha,GERACAO MOTOS,RUA CANDIDO RAMOS  110,CAPOEIRAS,88090-800,048,3240-8484,SC,FLORIANOPOLIS,508,08153200000196,-27.598586,-48.6024896
Yamaha,GERACAO MTS II,RUA CANDIDO RAMOS  110,CAPOEIRAS,88090-800,048,3240-8484,SC,FLORIANOPOLIS,91,08153200000196,-27.598586,-48.6024896
Yamaha,MOTO STORE - SUL DA ILHA,RODOVIA FRANCISCO MAGNO VIEIRA  619,RIO TAVARES,88048-000,048,3380-6000,SC,FLORIANOPOLIS,442,37592691000250,-27.6504496,-48.5205961
Yamaha,RC NAUTICA,RUA JOSE CANDIDO DA SILVA  105 - SALA 01 ,BALNEARIO,88075-250,048,3240-4731,SC,FLORIANOPOLIS,572,05743684000135,-27.5811353,-48.5798681
Yamaha,VIP MOTORS,AV. CENTENARIO  5845,PROSPERA,88811-701,048,3444-0004,SC,CRICIUMA,325,31110853000100,-28.6807007,-49.347315
Yamaha,MOTO CENTER - CONCORDIA,RUA DO COMERCIO  555,CENTRO,89700-089,049,3444-4001,SC,CONCORDIA,148,08527224000168,-27.2310184,-52.0258831
Yamaha,DE MARCO - CHAPECO,"RUA CRISTOVÃO COLOMBO, 69 E",BELA VISTA,89804250,049,3319-2400,SC,CHAPECÓ,237,16791325000170,-27.0772453,-52.6306439
Yamaha,HILTON MOTOS,RUA CAETANO COSTA  860,CENTRO,89460-098,047,3622-8088,SC,CANOINHAS,114,04052085000102,-26.1811671,-50.3877640
Yamaha,HEIL MOTOS E NAUTICA LTDA EPP,AV 1 DE MAIO  540/550 ,CENTRO,88353-201,047,3351-1679,SC,BRUSQUE,511,85159556000188,-27.1069357,-48.9149614
Yamaha,SEIKO MOTOR,RUA DAS MISSOES  1380,PONTA AGUDA,89051-001,047,3288-0888,SC,BLUMENAU,314,76625870000118,-26.902513,-49.062812
Yamaha,AMANTES DA MOTONAUTICA,RUA JOSE ANASTACIO TEIXEIRA  1336  SALA 01 E 02 ,VILA FLOR,88745-000,048,3622-0201,SC,CAPIVARIA DE BAIXO,453,10430342000103,-28.4412408,-48.9505159
Yamaha,DE VENTO EM POPA,RUA BRAS CUBAS  357 ,NOVA ESPERANCA,88336-325,047,3361-5534 ,SC,BALNEARIO CAMBORIU,493,97499008000186,-27.0113147,-48.6175493
Yamaha,DVR MOTOS,AV. DO ESTADO DALMO VIEIRA  451 - SALA 02,PIONEIROS,88331-150,047,3360-8661,SC,BALNEARIO CAMBORIU,265,21578639000129,-26.984653,-48.639801
Yamaha,JETCO COMERCIO DE ARTIGOS ESPORTIVOS LTDA EPP,RUA SAO PAULO  105,ESTADOS,88339-025,47,2125-6218,SC,BALNEARIO CAMBORIU,519,05523508000350,-26.9955974,-48.6480909
Yamaha,LEKO RACING,R ANTONIO MANOEL PAULINO  320,CIDADE ALTA,88901-020,048,3522-2282,SC,ARARANGUA,523,15271835000153,-28.9426459,-49.4923742
Yamaha,VIP MOTORS - ARARANGUA,AVENIDA SETE DE SETEMBRO  1430,CENTRO,88900-015,048,3431-7854,SC,ARARANGUA,393,31110853000290,-28.9374288,-49.347315
Yamaha,ORION COMERCIO ,AV. 25 DE AGOSTO  4697,CENTRO,76940-000,069,3442-9900,RO,ROLIM DE MOURA,560,06158747000159,-11.7375385,-61.7941232
Yamaha,ORION MOTONAUT.,AV. 25 DE AGOSTO  4697,CENTRO,76940-000,069,3442-9900,RO,ROLIM DE MOURA,221,06158747000159,-11.7375385,-61.7941232
Yamaha,BINGOOL -PORTO VELHO,RUA JOSE AMADOR DOS REIS  2698,JUSCELINO KUBITSCHEK,76829-422,069,99288-4004,RO,PORTO VELHO,338,06061275000707,-8.769900,-63.835953
Yamaha,BINGOOL MOTOS,AV. ROGERIO WEBER  1867 SALA 03 ,CENTRO,78916-050,069,3217-1706,RO,PORTO VELHO,462,06061275000111,-8.766841830959201,-63.90659575980687
Yamaha,BINGOOL MOTOS,AV. ROGERIO WEBER  1867 SALA 03,CENTRO,76801-030,069,3217-1706,RO,PORTO VELHO,22,06061275000111,-8.766841830959201,-63.90659575980687
Yamaha,PICA PAU MOTOS,AV. TRANSCONTINENTAL  1660,PRIMAVERA,76914-846,069,3416-3000,RO,JI-PARANA,39,02952164000144,-10.8732528,-61.9532054
Yamaha,PORTAL MOTOS JA,AV. DOM PEDRO I  2518,SETOR 05,76890-000,069,3521-2287,RO,JARU,209,11413185000182,-10.424726,-62.478284
Yamaha,AQUA FORCE,AV. TRANSCONTINENTAL  3435 ,JARDIM PRESIDENCIAL ,76901-007,069,3422-1477,RO,JI PARANA,456,09561463000105,-10.8670025,-61.9674351
Yamaha,PICA PAU CACOAL,AV. SETE DE SETEMBRO  2020,CENTRO,76964-006,069,3441-6000,RO,CACOAL,243,09601702000103,-11.4421188,-61.4450104
Yamaha,PICA PAU COMERCIO,AV SETE DE SETEMBRO  2020,PRINCESA ISABEL ,76964-006,069,3441-6000,RO,CACOAL,566,09601702000103,-11.4421188,-61.4450104
Yamaha,CENTRAL MOTOS,AV. CANAA  3105 QD 3 BL 1 LOTE 2-A,SETOR 03,76870-497,069,3535-5045,RO,ARIQUEMES,133,07592495000134,-9.9138262,-63.0255049
Yamaha,CASA DAS MOTOCICLETAS - SANTA CRUZ,PRACA PRESIDENTE KENNEDY  187,CENTRO,59200-000,084,3431-1834,RN,SANTA CRUZ,168,10293191000261,-6.219743,-36.024971
Yamaha,LFC MOTOS PARNA,AV. PILOTO PEREIRA TIM  2789,BR 101,59140-001,084,3272-2843,RN,PARNAMIRIM,129,05564361000265,-5.9060643,-35.2604426
Yamaha,LFC MOTOS,AV. BERNARDO VIEIRA  2216-B,DIX-SEPT ROSADO,59054-000,084,3613-0107,RN,NATAL,97,05564361000184,-5.807575,-35.2196266
Yamaha,SOLARES MOTOS,AV. DOUTOR JOAO MEDEIROS FILHO  1240,POTENGI,59108-550,084,32049250,RN,NATAL,306,22208833000185,-5.7636929,-35.253871
Yamaha,SOLARES MOTOS,AV. DOUTOR JOAO MEDEIROS FILHO  1240,POTENGI,59108-550,084,3204-9250,RN,NATAL,582,22208833000185,-5.7636929,-35.253871
Yamaha,CASA DAS MOTOCICLETAS,RUA JOAO ALFREDO  158,CENTRO,59380-000,084,3431-1834,RN,CURRAIS NOVOS,183,10293191000180,-6.262943,-36.5176957
Yamaha,WR MOTOS,R FELIPE CAMARAO  509,ALTO DA CONCEICAO,59600-340,084,3316-3760,RN,MOSSORO,33,01977357000197,-5.1937174,-37.3481366
Yamaha,SERIDO MOTOS,AV. CORONEL MARTINIANO  2142,PENEDO,59300-000,084,3421-3820,RN,CAICO,83,04653567000118,-6.459811,-37.099006
Yamaha,MOTO CARLOS,AV. HONORATO VIANA  815,GERCINO COELHO,56308-000,087,3863-4000,PE,PETROLINA,162,02524869000160,-9.391904,-40.5179603
Yamaha,CASA DAS MOTOCICLETAS - ACU,AV. SENADOR JOAO CAMARA  1250,CENTRO,59650-000,084,3331-1892,RN,ACU,184,10293191000342,-5.576094,-36.908834
Yamaha,BEIRA RIO NAUTICA,AVENIDA NIVALDO DE CRISTO LOBO  41,MARIA FARINHA,53427-450,081,3435-8740 ,PE,PAULISTA,459,08546634000156,-7.850599000000001,-34.8392196
Yamaha,DISNOVE MOTOS - PAULISTA,AV. MARECHAL FLORIANO PEIXOTO  72,CENTRO,53401-460,081,3271-6868,PE,PAULISTA,379,11696408000751,-7.9419299,-34.8793128
Yamaha,RECIFE NAUTICA,AV. DOUTOR CLAUDIO JOSE GUEIROS LEITE  9558,NOSSA SENHORA DO O,53429-000,081,3435-0104,PE,PAULISTA,575,24424970000182,-7.884724599999998,-34.82774819999999
Yamaha,DISNOVE MOTOS - OLINDA,AV. PRESIDENTE GETULIO VARGAS  1180,BAIRRO NOVO,53030-010,081,3271-6868,PE,OLINDA,92,11696408000590,-7.996932,-34.839552
Yamaha,MOTONAUTICA ,AV DO PATROCINIO 3051,CENTRO,76980-000,069,3321-3272,RO,VILHENA,544,08642286000110,-12.0416685,-60.1184797
Yamaha,PICA PAU - VILHENA,RUA COSTA E SILVA  122,CENTRO (S-01),76980-146,069,3441-6000,RO,VILHENA,415,09601702000286,-12.7388046,-60.1464899
Yamaha,MOTOVIA JABOATAO,RUA VISCONDE RIO BRANCO  146B,CENTRO,54110-140,081,3481-3596,PE,JABOATAO DOS GUARARAPES,203,05152701000402,-8.112613,-35.019906
Yamaha,GERALMOTOS,ROD PE 75 - KM 03 - N.100,CENTRO,55900-000,081,3626-0611,PE,GOIANA,121,06170282000151,-7.5755961,-35.0180702
Yamaha,MOTO ARTE,RUA VISCONDE DE INHAUMA  843,MAURICIO DE NASSAU,55012-010,081,3727-7050,PE,CARUARU,125,13240838000102,-8.275197,-35.975470
Yamaha,SEM FRONTEIRAS GARANHUNS ,ROD BR - 423  SN KM 101,MAGANO,55294-440,087,3822-2800,PE,GARANHUNS,320,04972225000241,-8.8828551,-36.4968966
Yamaha,MOTO ARTE - GRAVATA,RUA 15 DE NOVEMBRO  159  LOJA 04 E 05,NOSSA SENHORA DAS GRACAS,55642-550,081,3721-3552,PE,GRAVATA,149,13240838000285,-23.7552622,-46.6765447
Yamaha,SODDER COMERCIO ,AV PARIGOT DE SOUZA 4015,JARDIM SANTA MARIA ,85903-170,045,3278-6222,PR,TOLEDO,581,08111369000183,-24.7198749,-53.7536958
Yamaha,SODDER MOTOS,AV. PARIGOT DE SOUZA  4015,JARDIM SANTA MARIA,85903-170,045,3278-6222,PR,TOLEDO,288,08111369000183,-24.7198749,-53.7536958
Yamaha,SEM FRONTEIRAS,RUA JULIO TAVARES DE LIMA  307,SUCUPIRA,56509-190,087,3822-2800,PE,ARCOVERDE,334,04972225000160,-8.426373,-37.057909
Yamaha,SERTAO MOTOS,ROD BR 316 SN - KM 22 8,CENTRO,56280-000,087,3873-2461,PE,ARARIPINA,339,07207680000168,-7.584800,-40.500546
Yamaha,SAVANA MOTOS - UNIAO DA VITORIA,RUA ZACARIAS GOES VASCONCELOS  913,CENTRO,84600-225,042,3035-3202,PR,UNIAO DA VITORIA,408,20798487000379,-26.2253499,-51.0940259
Yamaha,YZA NAUTICA,R MANOEL RAMIRES  6190  LOTE 8-F-2-A,PARQUE INDUSTRIAL I,87507-011,044,3624-4250,PR,UMUARAMA,602,09449316000130,-23.7782162,-53.288851
Yamaha,L9 PONTA GROSSA,AV. MONTEIRO LOBATO  1300,JARDIM CARVALHO,84015-480,042,3238-3003,PR,PONTA GROSSA,245,15212036000378,-25.0772438,-50.1549237
Yamaha,VIP MOTORS - PONTA GROSSA,"AV. MONTEIRO LOBATO, 695",JARDIM CARVALHO,84015480,048,3431-7854,PR,PONTA GROSSA,605,31110853/000371,-25.0772438,-50.1549237
Yamaha,MOTOMANIA - PARANAGUA,AL. CORONEL ELYSIO PEREIRA  432,ESTRADINHA,83206-000,041,3722-1882,PR,PARANAGUA,407,03243460000210,-25.5270503,-49.5189657
Yamaha,CICLONAUTICA,AV. PRESIDENTE VARGAS   1011,CENTRO,87900-000,044,3425-1267,PR,LOANDA,480,03711362000189,-22.9262769,-53.0888943
Yamaha,TRIASA MOTOS,"Rua Paraná, 1210",JARDIM AMÉRICA,87705190,44,39001555,PR,PARANAVAÍ,608,43007341/000100,-23.0813291,-52.458353
Yamaha,TROPICAL NAUTIC,RUA INDEPENDENCIA  855,CENTRO,85960-000,045,3254-4140,PR,MARECHAL CANDIDO RONDON,319,03017190000148,-24.5836925,-54.1501922
Yamaha,TROPICAL NAUTICA,RUA INDEPENDENCIA  855,CENTRO,85960-000,045,3254-4140,PR,MAL.CAND. RONDON,590,03017190000148,-24.5836925,-54.1501922
Yamaha,PB,RUA BRASIL  12,CENTRO,86010-200,043,3379-9999,PR,LONDRINA,7,78599958000308,-23.308897,-51.154009
Yamaha,MARYNGA MOTO NAUTICA,AV COLOMBO  4629 ,ZONA 07 ,87030-120,044,3262-9090,PR,MARINGA,537,05282006000112,-23.41459,-51.92718
Yamaha,VENTANIA,AV. COLOMBO  4629 - ZN 07,ZONA 04,87030-120,044,3262-9090,PR,MARINGA,144,05282006000112,-23.4149519,-51.9247059
Yamaha,SAVANA MOTOS - IRATI,RUA DEZENOVE DE DEZEMBRO  768,CENTRO,84500-016,046,3536-1101,PR,IRATI,409,20798487000298,-25.475097,-50.6525133
Yamaha,MAR SUL SERVICOS MARITIMOS,RUA UNIAO VITORIA  23 ,CENTRO,83280-000,041,3443-6024,PR,GUARATUBA,531,07095542000134,-25.8757863,-48.7995122
Yamaha,NAUTICA NERI,RUA LIMEIRA  589,JARDIM LARANJEIRAS,85868-160,045,3524-3628,PR,FOZ DO IGUACU,554,80271109000100,-25.4939172,-54.5795089
Yamaha,PICO MOTOS,RUA MARECHAL FLORIANO  1270,CENTRO,85851-020,045,3523-1505,PR,FOZ DO IGUACU,150,08844533000161,-25.5428889,-54.5834745
Yamaha,BOATSP EQUIPAMENTOS,R GOVERNADOR AGAMENON MAGALHAES  537,TARUMA,82800-100,011,4304-6512,PR,CURITIBA,463,10233269000414,-25.43570907774024,-49.23341069339699
Yamaha,DVR MOTOS - CURITIBA,RUA ISAAC GUELMANN  4387,NOVO MUNDO,81050-030,041,3532-9839,PR,CURITIBA,378,37422881000149,-25.4842582,-49.2958824
Yamaha,INFINITY MOTOS,AV. MANOEL RIBAS  1636,MERCES,80810-260,041,3010-7900,PR,CURITIBA,266,21668332000119,-25.4194811,-49.2950261
Yamaha,MIZUNAUTICA,TRAVESSA SOLIERI  73 ,PRADO VELHO,80215-290,041,3015-1506,PR,CURITIBA,539,82205691000124,-25.4588525,-49.2549187
Yamaha,MOTOMANIA,AV. ERASTO GAERTNER  529,BACACHERI,82510-160,041,3256-5829,PR,CURITIBA,48,03243460000139,-25.40211654,-49.2439481
Yamaha,PROMOTOSSUL,AV. MARECHAL FLORIANO  3006,PAROLIM,80220-000,041,3333-5225,PR,CURITIBA,77,04763202000146,-25.4554872,-49.2601267
Yamaha,MOTOMANIA - VILA MARACANA,AV. MARGINAL JOSE DE ANCHIETA  1340,VILA MARACANA,83408-010,041,3663-1200,PR,COLOMBO,180,03243460000309,-25.356921,-49.180731
Yamaha,SAVANA MOTOS,AV. XV DE NOVEMBRO  6843  SALA 01,CENTRO,85010-000,042,3035-3205,PR,GUARAPUAVA,258,20798487000107,-25.3894178,-51.4615262
Yamaha,IAPO TOP MOTOS,RUA TIRADENTES  65,CENTRO,84165-630,042,3232-1010,PR,CASTRO,210,12842603000110,-24.7889164,-50.0041866
Yamaha,MOTO-K,RUA NOSSA SENHORA DAS GRACAS  295,CANGO,85604-080,046,3524-5066,PR,FRANCISCO BELTRAO,165,09626955000123,-26.0693341,-53.05981
Yamaha,MOTONAUTICA CENTER,AV. LUIS ANTONIO FAEDO  277,CENTRO,85601-275,046,3523-3060,PR,FRANCISCO BELTRAO,545,79129680000106,-26.0839499,-53.0472977
Yamaha,BIBBO S,AV. BRASIL  2262-B,SAO CRISTOVAO,85816-290,045,2104-3707,PR,CASCAVEL,13,02461092000132,-24.9525477,-53.5057225
Yamaha,BIBBOS MOTONAUTICA,AV. BRASIL. 2262 B,SAO CRISTOVAO,85816-290,045,2104-3707,PR,CASCAVEL,461,02461092000132,-24.9525477,-53.5057225
Yamaha,CENTRO NAUTICO NORDESTE ,R CREUSA JOSEFA MORATO  179 - QUADRA 24 LOTE 8A LOTEAM.BELA VISTA II  ,INTERMARES,58310-000,083,3248-2460,PB,CABEDELO,477,09260881000154,-7.0294857,-34.8458603
Yamaha,MARINA DO ALEMAO,AVENIDA JOSE AMERICO DE ALMEIDA FILHO  S/N - QUADRA Q-07 - LOTES 6 7 E 8 ,AREIA DOURADA,58101-212,083,3228-2777,PB,CABEDELO,535,00642924000191,-6.9814842,-34.8280932
Yamaha,JAMPA MOTOS - SANTA RITA,RUA SIQUEIRA CAMPOS  175,CENTRO,58300-180,083,3023-3034,PB,SANTA RITA,416,21514649000524,-7.1218039,-34.9823782
Yamaha,JAMPA MOTOS,AV. PRESIDENTE GETULIO VARGAS  183 - ANDAR 1,CENTRO,58013-240,083,4009-0404,PB,JOAO PESSOA,119,21514649000109,-7.1207444,-34.8765902
Yamaha,JAMPA MOTOS,AV PRESIDENTE GETULIO VARGAS  183 ,CENTRO,58013-240,083,3023-3034,PB,JOAO PESSOA,516,21514649000109,-7.1207444,-34.8765902
Yamaha,JAMPA MOTOS - JOAO PESSOA,RUA JOSEFA TAVEIRA  22,MANGABEIRA,58055-000,083,3506-8500,PB,JOAO PESSOA,286,21514649000362,-7.1622702,-34.8385073
Yamaha,JAMPA MOTOS - GUARABIRA,AV. RUI BARBOSA  682,CENTRO,58280-000,083,3271-3864,PB,GUARABIRA,273,21514649000281,-6.8526342,-35.4953671
Yamaha,ADRENALINA M II,"AV. ATALIBA VIEIRA DE ALMEIDA, 1274",CENTRO,65500-000,098,3471-1120,MA,CHAPADINHA,44,07602952000205,-3.743704,-43.361997
Yamaha,YAMAVALE SAO LEOPOLDO,AV. GETULIO VARGAS  952,CENTRO,93010-074,051,3554-2200,RS,SAO LEOPOLDO,246,06935914000716,-29.7677081,-51.153144
Yamaha,F. C. BARRA CORDA,AV. RIO AMAZONAS  08,TRIZIDELA,65950-000,099,3643- 4619,MA,BARRA DO CORDA,105,04090529000790,-5.4971685,-45.26043
Yamaha,CENTRO NAUTICO ,AV IPIRANGA  375,CENTRO,98800-000,055,3312-4398 ,RS,SANTO ANGELO,476,91897413000176,-28.316532937117508,-54.269826486499134
Yamaha,MOTO SPORT S.AN,AV. VENANCIO AIRES  1915,CENTRO,98801-660,055,3312-2428,RS,SANTO ANGELO,217,09089263000355,-28.2901235,-54.2591106
Yamaha,GP MOTOS,AV. EXPEDICIONARIO WEBER  1061,CENTRO,98780-340,055,3511-6555,RS,SANTA ROSA,223,14209956000102,-27.863389,-54.465453
Yamaha,MUNDO LIVRE,PRACA MAJOR JOSE MARQUES GALVAO  37,CENTRO,58900-000,083,3531-6066,PB,CAJAZEIRAS,94,05463825000166,-6.8863398,-38.5614178
Yamaha,NAUTICA,ROD CELSO GARCIA CID   888 - LOTE 51  A-7 BLOCO A ,CHACARA MANELA,86188-000,043,3174-1515,PR,CAMBE,549,11990093000165,-23.27101333282387,-51.24880248844574
Yamaha,NAUTICA GOLD FISH,ROD CELSO GARCIA CID   888 - LOTE 51  A-7 BLOCO B ,CHACARA MANELA,86188-000,043,3174-1515,PR,CAMBE,552,10586061000136,-23.27103,-51.24881
Yamaha,YAMAVALE TAQUAR,AV. OSCAR MARTINS RANGEL  4411,SANTA MARIA,95612-450,051,3542-2200,RS,TAQUARA,227,06935914000554,-29.6333149,-50.7990417
Yamaha,JAMPA MOTOS - CAMPINA GRANDE,RUA JOAO SUASSUNA  300,CENTRO,58400-036,083,3099-6101,PB,CAMPINA GRANDE,318,21514649000443,-7.21605,-35.888073
Yamaha,YAMAVALE SAPIRA,ROD RS 239  4171,SANTA FE,93800-000,051,3559-2888,RS,SAPIRANGA,225,06935914000635,-29.6435405,-50.9925747
Yamaha,MS SAO LUIZ,RUA SAO JOAO  2121,CENTRO,97800-000,055,3352-2470,RS,SAO LUIZ GONZAGA,164,09089263000193,-28.3991787,-54.9593802
Yamaha,MOTO GIRO,RUA SETE DE SETEMBRO  860,CENTRO,97573-470,055,3243-2113,RS,SANTANA DO LIVRAMENTO,58,03793722000139,-30.888996,-55.53127
Yamaha,AZZURRA MOTOS,ROD BR-158  1820,NOSSA SENHORA DE LOURDES,97060-220,055,3223-9911,RS,SANTA MARIA,65,04123947000140,-29.6929616,-53.8098576
Yamaha,RIVER VOLTA REDONDA,AV. PAULO DE FRONTIN  748,ATERRADO,27213-270,024,3242-1533,RJ,VOLTA REDONDA,294,10307263000100,-22.505371,-44.092236
Yamaha,YAMARIOS,RUA NELSON VIANA  455,CENTRO,25805-290,024,2252-2008,RJ,TRES RIOS,53,03644114000162,-22.117966,-43.209529
Yamaha,TRIPLO MOTOS,AV. ALBERTO TORRES  530,AUTO TERESOPOLIS,25964-006,021,2643-5454,RJ,TERESOPOLIS,220,32044703000701,-22.430442,-42.979344
Yamaha,DISTAC SJ DE MERIT,AV. AUTOMOVEL CLUB  421,JARDIM MERITI,25515-125,021,2651-8000,RJ,SAO JOAO DE MERITI,173,29502945000940,-22.7807084,-43.3620875
Yamaha,HADENA - SANTO ANTONIO DE PADUA,RUA FLORISMUNDO DECNOP  120,TAVARES,28470-000,022,2732-8546,RJ,SANTO ANTONIO DE PADUA,375,25450218000250,-21.5448296,-42.1779891
Yamaha,AMOTO,RUA FRANCISCO PORTELA  2476,PORTO NOVO,24435-005,021,3611-7450,RJ,SAO GONCALO,309,29079016000113,-22.8283695,-43.0632228
Yamaha,MOTO MUNDI,RUA GENERAL RONDON  281,QUITANDINHA,25650-025,024,2249-9494,RJ,PETROPOLIS,4,28822559000116,-22.532695,-43.200152
Yamaha,AMOTO - BONSUCESSO,"RUA BONSUCESSO, 200",BONSUCESSO,21040320,021,2135-7142,RJ,RIO DE JANEIRO,603,29079016/000466,-22.862842,-43.2548198
Yamaha,AMOTO - CAMPO GRANDE,ESTRADA CAPOEIRAS  713,CAMPO GRANDE,23085-660,021,3738-4838,RJ,RIO DE JANEIRO,328,29079016000385,-22.8914322,-43.5594694
Yamaha,PARATY NAUTICA,RUA A   SN LOTE 30   C-A,VILA DOM PEDRO I,23970-000,024,3371-4470,RJ,PARATI,562,05925860000150,-23.0656361,-44.7381432
Yamaha,AMOTO - PENHA,AV. BRAZ DE PINA  397,PENHA,21070-031,021,2270-7022,RJ,RIO DE JANEIRO,315,29079016000202,-22.8385527,-43.2846
Yamaha,DANIMAR BARRA,EST BARRA DA TIJUCA 367 - LOJA2 E 3,ITANHANGA,22611-201,021,3592-7772,RJ,RIO DE JANEIRO,492,40021223000150,-23.0089647,-43.3002227
Yamaha,DISTAC - CACHAMBI,AV. DOM HELDER CAMARA  5085 OEX,CAXAMBI,20771-001,021,3979-7270,RJ,RIO DE JANEIRO,252,29502945001670,-22.886836,-43.280588
Yamaha,DISTAC - MADUREIRA,RUA ANALIA FRANCO  10,CAMPINHO,21330-120,021,2554-2200,RJ,RIO DE JANEIRO,402,29502945001831,-22.8793177,-43.3589394
Yamaha,DISTAC MOTOS,RUA DAS LARANJEIRAS  291/301,LARANJEIRAS,22240-004,021,2554-2200,RJ,RIO DE JANEIRO,25,29502945000193,-22.9349835,-43.1883232
Yamaha,DISTAC REALENGO,AV. DE SANTA CRUZ  1765,REALENGO,21710-231,021,3107-8000,RJ,RIO DE JANEIRO,336,29502945001750,-22.8777262,-43.442653
Yamaha,PAKIMAR MOTOS,RUA DO ROSARIO  1356,MANEJO,27512-230,024,3354-5636,RJ,RESENDE,189,32044703000531,-22.4688533,-44.4564709
Yamaha,TRINDADE MOTOS,RUA DAMAS BATISTA 11-E.PLINIO CASADO,CENTRO,26220-180,021,2882-3200,RJ,NOVA IGUACU,86,32044703000370,-22.7597631,-43.4515542
Yamaha,FUN BIKE,AV. GEREMARIO DANTAS  650,PECHINCHA,22740-010,021,3392-9955,RJ,RIO DE JANEIRO,57,03767615000136,-22.9235801,-43.3638734
Yamaha,L A STAR NAUTICA (Grupo Trinca),RUA HELIOS SEELINGER  100,BARRA DA TIJUCA ,22640-040,021,2491-2187,RJ,RIO DE JANEIRO,521,14169922000131,-23.0056448,-43.3131694
Yamaha,MOTO 3,RUA SAO FRANCISCO XAVIER   242,MARACANA,20550-012,021,2204-4700,RJ,RIO DE JANEIRO,35,32044703000299,-22.9163195,-43.2276141
Yamaha,MOTOX - BOTAFOGO,RUA DA PASSAGEM  47,BOTAFOGO,22290-030,021,2541-6474,RJ,RIO DE JANEIRO,279,07335328000299,-22.9549159,-43.1823635
Yamaha,PKM MOTOS,AV. ERICO VERISSIMO  522,BARRA DA TIJUCA,22621-180,021,3433-5013,RJ,RIO DE JANEIRO,137,32044703000450,-23.0103939,-43.3084843
Yamaha,RC STAR NAUTICA (Grupo Trinca),AVN INFANTE DOM HENRIQUE SN -  LOJA 4 - MARINA DA GLORIA,GLORIA,10001-140,021,2556-1073,RJ,RIO DE JANEIRO,573,03293747000173,-21.1477359,-47.8071507
Yamaha,YAMOTOR,RUA LUIZ SPINELLI  27,CENTRO,28610-180,022,2522-8425,RJ,NOVA FRIBURGO,20,32107112000132,-22.2792408,-42.5325242
Yamaha,TRI MOTOS RECREIO,AV DAS AMERICAS  13999,RECREIO DOS BANDEIRANTES,22790-701,021,3258-6395,RJ,RIO DE JANEIRO,205,32044703000612,-23.0109316,-43.4506716
Yamaha,TRINCA NAUTICA LTDA,AV. BRASIL  1211 ,SAO CRISTOVAO,20930-040,021,2589-6038,RJ,RIO DE JANEIRO,589,39128012000131,-22.8857369,-43.2293682
Yamaha,EDISA,AVENIDA SERTORIO  5825,SAO SEBASTIAO,91060-591,051,3516-0204,RS,PORTO ALEGRE,401,39294485000109,-30.0005502,-51.1337626
Yamaha,MOTORYAMA,AV FARRAPOS  3946 ,NAVEGANTES,90220-003,051,3406-4000,RS,PORTO ALEGRE,547,87668273000197,-29.9966939,-51.1907957
Yamaha,MOTORYAMA,AV. FARRAPOS  3946,NAVEGANTES,90220-003,051,3406-4000,RS,PORTO ALEGRE,178,87668273000197,-29.9966939,-51.1907957
Yamaha,YNOVA,AV. CORONEL APARICIO BORGES  764,GLORIA,90680-570,051,3320-5500,RS,PORTO ALEGRE,155,09175240000100,-30.073605,-51.201734
Yamaha,YNOVA - CAMAQUA,AV. OTTO NIEMAYER  2220,CAMAQUA,91910-001,051,3085-7690,RS,PORTO ALEGRE,229,09175240000363,-30.106951,-51.246783
Yamaha,ELETROMOTO,RUA GENERAL OSORIO  911,CENTRO,96020-000,053,3222-2626,RS,PELOTAS,47,92203058000150,-31.7627487,-52.3411848
Yamaha,MOTOR FACTORY TECNOLOGIA MECANICA,"AVENIDA ADOLFO FETTER, 1133 - Loja 4",LARANJAL,96083094,053,99909-6233,RS,PELOTAS,607,34977192/000102,-31.7554233,-52.275926
Yamaha,YAMAVALE - IMBE,AV. OSORIO  80,CENTRO,95625-000,051,3527-7000,RS,IMBE,414,06935914000805,-29.9803357,-50.135122
Yamaha,MOTO SPORT,AV BRASIL OESTE  3477,BOQUEIRAO ,99025-533,054,3312-1599,RS,PASSO FUNDO,542,03560205000209,-28.267212,-52.4342639
Yamaha,MOTO SPORT II,RODOVIA RS-153 47,BOM RECREIO,99132000,054,3312-1599,RS,PASSO FUNDO,23,03560205000209,-28.280058,-52.4508148
Yamaha,MOTO SPORT N.P.,RUA FLORES DA CUNHA  1072,CENTRO,95320-000,054,3242-3456,RS,NOVA PRATA,200,03560205000381,-28.784229,-51.608611
Yamaha,YNOVA GRAVATAI,AV. DORIVAL C.LUZ DE OLIVEIRA  4430,VILA BRANCA,94050-000,051,3484-8500,RS,GRAVATAI,169,09175240000282,-29.9361091,-51.0386183
Yamaha,YAMAVALE N.HAMB,RUA GUIA LOPES  4493 - SOBRELOJA,JARDIM MAUA,93410-340,051,3527-7000,RS,NOVO HAMBURGO,118,06935914000120,-29.69179,-51.119247
Yamaha,MOTO SPORT,PRACA JULIO DE CASTILHOS  140,CENTRO,99700-428,054,2107-4500,RS,ERECHIM,49,03560205000110,-27.6448992,-52.2710619
Yamaha,ORLANDO RIBAS,RUA 13 DE MAIO  850,CENTRO,98700-000,055,3332-9222,RS,IJUI,6,90732322000118,-28.3858435,-53.911979
Yamaha,CICLOVIA,ROD BR 386 ? KM 346  2.139,CENTRO,95911-060,051,3714-3234,RS,LAJEADO,52,72037112000128,-29.4492531,-51.9601494
Yamaha,CARAZINHO MOTOS,AV. FLORES DA CUNHA  3608,CENTRO,99500-000,054,3331-1245,RS,CARAZINHO,159,08093815000174,-28.2942848,-52.7971193
Yamaha,YAMALAGOS,AV. RUI BARBOSA  1860 LOJA 01,ALTOS DOS CAJUEIROS,27915-012,022,2772-5572,RJ,MACAE,100,05909520000135,-22.3856681,-41.7755504
Yamaha,MOTOPECALMIR,AV. PRESIDENTE DUTRA  407-LOJA C,CIDADE NOVA,28300-000,022,3822-2740,RJ,ITAPERUNA,45,00965144000182,-21.2011306,-41.8966841
Yamaha,MOTO SPORT - CAXIAS DO SUL,RUA RUBEN BENTO ALVES  3422,UNIVERSITARIO,95041-034,054,3029-2900,RS,CAXIAS DO SUL,292,03560205000543,-29.1497897,-51.1843538
Yamaha,MOTOX,ALAMEDA SAO BOA VENTURA  480,FONSECA,24120-191,021,2627-5610,RJ,NITEROI,134,07335328000108,-22.881105,-43.09783
Yamaha,HADENA MOTOMAR,RUA CONSELHEIRO THOMAS COELHO  278,PARQUE LEOPOLDINA,28051-202,022,2732-8174,RJ,CAMPOS DOS GOYTACAZES,73,25450218000179,-21.748704422564202,-41.336005901965294
Yamaha,HADENA MOTOMAR,R CONSELHEIRO THOMAS COELHO  278,PARQUE LEOPOLDINA,28051-202,022,2732-8546,RJ,CAMPOS DOS GOYTACAZES,510,25450218000179,-21.748704422564202,-41.336005901965294
Yamaha,MOTO SPORT - BENTO GONCALVES,AV. HUMBERTO A. CASTELO BRANCO  430,FENAVINHO,95705-880,054,3455-3455,RS,BENTO GONCALVES,291,03560205000462,-29.1641677,-51.5013627
Yamaha,WILL BOAT,RODOVIA RIO SANTOS KM 24 5 LOTE 15  QUADRA 1,COROA GRANDE,23825-103,021,2687-9556,RJ,ITAGUAI,599,21080792000121,-22.8984419,-43.85060310000001
Yamaha,MOTORYAMA CANOA,AV. GETULIO VARGAS  6034,CENTRO,92010-011,051,3032-4004,RS,CANOAS,108,87668273000430,-29.9077483,-51.1771938
Yamaha,MOTOX - CABO FRIO,AV. AMERICA CENTRAL  1630,SAO CRISTOVAO,28909-581,022,2647-4800,RJ,CABO FRIO,152,07335328000370,-22.8851745,-42.0506666
Yamaha,NAUTICA TRADING ,"RUA JOSÉ RODRIGUES POVOA , 1360 A LOTE 94",GAMBOA,28924-180,022,2644-9431,RJ,CABO FRIO,556,11408983000116,-22.8715691,-42.0172371
Yamaha,R J F F AMADO PRODUTOS NAUTICOS ME,RUA DO GURIRI (LOTE 20 QUADRA 07),PERÓ,28922370,21,9 6488-6493,RJ,CABO FRIO,617,10958596000190,-22.828572318391878,-41.99287958912876
Yamaha,TRINCA MOTOS,AV. BENJAMIM PINTO DIAS 1027,CENTRO,26130-000,021,3664-6200,RJ,BELFORD ROXO,357,32044703000884,-22.7665135,-43.3999129
Yamaha,DISTAC - NILÓPOLIS,"AV. GETÚLIO VARGAS, 1878",CENTRO,26510010,021,3281-7978,RJ,NILÓPOLIS,604,29502945/001912,-22.8057615,-43.42421
Yamaha,MOTOPECALMIR - BAIRRO NOVO,AV. GOVERNADOR ROBERTO SILVEIRA  597,BAIRRO NOVO,28360-000,022,3831-1415,RJ,BOM JESUS DO ITABAPOANA,187,00965144000263,-21.132816,-41.665367
Yamaha,ANGRAMARINE SERVICOS NAUTICOS,RUA WISNTON MARUCA  S/N LOTE 15 ,JACUECANGA,23914-350,024,3421-4055,RJ,ANGRA DOS REIS,455,06942518000120,-22.9939288,-44.2421639
Yamaha,DANIMAR,"AVENIDA ALMIRANTE JAIR CARNEIRO TOSCANO DE BRITO, 671",PRAIA DA CHÁCARA,23906805,024,3377-2793,RJ,ANGRA DOS REIS,491,07555625000169,-23.0013552,-44.3001393
Yamaha,NAUTICA PORTO NOVO,AV. JOSE ELIAS RABHA - 340- LOTE 08 - LOJA A ,PQ. DAS PALMEIRAS,23906-510,024,3367-1236,RJ,ANGRA DOS REIS ,555,00887483000198,-22.99958996175695,-44.30126495961497
Yamaha,YANGRA,RUA JAPORANGA  990 - LOJA B,JAPUIBA (CUNHAMBEBE),23934-055,024,3377-6733,RJ,ANGRA DOS REIS,157,09053378000128,-22.9993328,-44.3025112
Yamaha,TRINCA MOTOS,RUA MAL FLORIANO  506,25 DE AGOSTO,25075-025,021,2775-9191,RJ,DUQUE DE CAXIAS,19,32044703000108,-22.7936622,-43.3006664
Yamaha,MUNDOSAM TERESINA,AV. BARAO DE GURGUEIA  3333-B,TABOLETA,64018-901,086,3025-8360,PI,TERESINA,285,06032602000530,-5.1128734,-42.8059366
Yamaha,MUNDOSAM TERESINA II,RUA PAISSANDU  792,CENTRO,64001-120,086,3305-1126,PI,TERESINA,290,06032602000611,-5.107337,-42.75274
Yamaha,R. SA PICOS,RUA CORONEL LUIZ SANTOS  807,CENTRO,64600-094,089,3415-7007,PI,PICOS,299,07179273000194,-7.0869908,-41.4699264
Yamaha,DELTA AUTOMOTORES ,RUA CARAMURU  640,BOA ESPERANCA,64215-400,086,3323-2513,PI,PARNAIBA,494,02557493000190,-2.918754414449041,-41.76108335984963
Yamaha,DELTA MOTOS,RUA CARAMURU  640,BOA ESPERANCA,64215-400,086,3323-2513,PI,PARNAIBA,59,02557493000190,-2.918754414449041,-41.76108335984963
Yamaha,R. SA OEIRAS,AV. SANTOS DUMONT  445,OEIRAS NOVA,64500-000,089,3462-4510,PI,OEIRAS,298,06263665000174,-7.0204188,-42.1317131
Yamaha,YAMOTOR -ARARUAMA,ROD AMARAL PEIXOTO  SN QD 39 LT 13,VILA CAPRI,28970-000,022,2665-1411,RJ,ARARUAMA,88,01943270000107,-22.8656865,-42.3120309
Yamaha,MOTOSHOW,AV. LIBERDADE  114,RIO VERDE,68515-000,094,3356-3440,PA,PARAUAPEBAS,268,20538980000198,-6.0701591,-49.8994439
Yamaha,CARAJAS COMERCIO ,AV. BRASIL 2877,CENTRO,68550-005,094,3424-3564,PA,REDENCAO,467,03831508000120,-8.050738299999999,-50.01708929999999
Yamaha,CARAJAS MOTOS,AV. BRASIL  2877,CENTRO,68550-005,094,3424-5918,PA,REDENCAO,27,03831508000120,-8.050738299999999,-50.01708929999999
Yamaha,MOSCHEN MOTOPCS,RUA WASHINGTON LUIS  11,ANGELIM,68626-352,091,3729-1745,PA,PARAGOMINAS,70,03924618000136,-2.9976317,-47.36033
Yamaha,F. C. FLORIANO,ROD BR 230  989,SAMBAIBA,64800-002,089,3515-2023,PI,FLORIANO,111,04090529000366,-6.8342351,-42.9065475
Yamaha,MOTOSHOW - MARABA,QUADRA DOIS  FOLHA 32  LOTE 02F  SN,NOVA MARABA,68508-020,94,99289-4965,PA,MARABA,347,34280585000162,-5.3474742,-49.1024718
Yamaha,FORMOSA MOTOS,TV SN 17 S/N CD FORMOSA CID N-LJ 14,COQUEIRO,67133-000,091,4006-9620,PA,ANANINDEUA,90,13426235000191,-1.3607455,-48.3913333
Yamaha,FORMOSA MOTOS,TRAVESSA SN 17 - COND. FORMOSA - CIDADE NOJA - LJ 14,CIDADE NOVA,67133000,091,4006-9609,PA,ANANINDEUA,505,13426235000191,-1.368212,-48.407298
Yamaha,CONQUISTA II,RUA SETE DE SETEMBRO  1646,CENTRO,68371-000,093,3515-2771,PA,ALTAMIRA,32,34913517000193,-3.2061701,-52.2110183
Yamaha,CONQUISTA MOTOCENTER II,RUA SETE DE SETEMBRO  1646 ,CENTRO,68371-000,093,3515-7888,PA,ALTAMIRA,488,34913517000193,-3.2061701,-52.2110183
Yamaha,COMAM MOTORES,R JUSTO CHERMONT  1160,CENTRO,68440-000,091,3751-1552,PA,ABAETETUBA,484,17757742000169,-1.677582,-48.9605972
Yamaha,AMAZONIA NAUTICA,AV. PEDRO ALVARES CABRAL  1011 ,MARAMBAIA,66615-860,091,3238-8680,PA,BELEM,454,04542330000160,-1.406048,-48.4372751
Yamaha,FORMOSA MOTOS - FATIMA,AV. JOSE BONIFACIO  225,FATIMA,66090-363,091,3182-3800,PA,BELEM,236,13426235000272,-1.465506,-48.468658
Yamaha,MOTOVESA - BELÉM,"TRAVESSA PADRE EUTIQUIO, 1192",BATISTA CAMPOS,66023710,61,3247-7610,PA,BELEM,612,03220168000109,-1.4583073,-48.4938098
Yamaha,TERRANEW MOTOS,AV. PEDRO ALVARES CABRAL  887,UMARIZAL,66050-400,091,3202-7730,PA,BELEM,301,27548066000177,-1.4362609,-48.491696
Yamaha,ALTERNATIVA NAUTICA,AV. RANULPHO MARQUES LEAL 390,JARDIM BRASILIA,79620-340,067,3522-9099,MS,TRES LAGOAS,452,13181164000295,-20.8062002,-51.687627
Yamaha,AGROMAC,"RUA DOUTOR COSTA MARQUES, 771 ",CENTRO,79280-000,067,3287-1129,MS,PORTO MURTINHO,448,07979959000160,-20.999348,-57.2818625
Yamaha,MOTOMAX,AV DOURADOS   N 163,CENTRO,79950-000,067,3461-1001,MS,NAVIRAI,543,04056108000157,-23.0084202,-54.1720041
Yamaha,NEGRELI,AV. DOURADOS  163,SETOR NORTE,79950-000,067,3461-1001,MS,NAVIRAI,188,04056108000157,-23.0084202,-54.1720041
Yamaha,FAROL MOTOS,AV. ANTONIO J. MOURA ANDRADE 1900,CENTRO,79750-000,067,3441-1900,MS,NOVA ANDRADINA,228,14224688000106,-22.2534241,-53.3529776
Yamaha,DISMOTO,RUA CEARA  913,SANTOS GOMES,79022-000,067,3318-6333,MS,CAMPO GRANDE,61,03509973000149,-20.4520728,-54.5935607
Yamaha,DISMOTO,RUA CEARA  913,JARDIM DOS ESTADOS ,79020-360,067,3318-6333,MS,CAMPO GRANDE,497,03509973000149,-20.4520728,-54.5935607
Yamaha,DISMOTO - CENTRO,RUA RUI BARBOSA  2581,CENTRO,79002-369,067,3324-1440,MS,CAMPO GRANDE,177,03509973000220,-20.463505,-54.613942
Yamaha,DISMOTO - VILA SOBRINHO,AV. JULIO DE CASTILHO  1810,VILA SOBRINHO,79100-005,067,3362-6333,MS,CAMPO GRANDE,175,03509973000491,-20.446637,-54.655709
Yamaha,REMOTOR\\ S,AV. PRES. ERNESTO GEISEL  3923,HORTO FLORESTAL,79082-000,067,3317-2760,MS,CAMPO GRANDE,78,04647834000144,-20.5052294,-54.6434834
Yamaha,DOURAMOTO,RUA AQUIDAUANA  445,CENTRO,79806-070,067,3411-4566,MS,DOURADOS,63,33105164000132,-22.2276654,-54.79916
Yamaha,DOURAMOTO,RUA AQUIDAUANA 445,CENTRO,79806-070,067,3411-4525,MS,DOURADOS,499,33105164000132,-22.2276654,-54.79916
Yamaha,MARCATO MOTOS,AV. VIRGINIA FERREIRA  545,FLAVIO GARCIA,79400-000,067,3291-1596,MS,COXIM,120,00122976000137,-18.50402127829537,-54.74890590201752
Yamaha,MARCATO MOTOS,AV. VIRGINIA FERREIRA  545,FLAVIO GARCIA,79400-000,067,3291-1596,MS,COXIM,532,00122976000137,-18.50402127829537,-54.74890590201752
Yamaha,CIA NAUTICA ,RUA COLOMBO 08,CENTRO,79301-120,067,3231-7022,MS,CORUMBA,479,03653015000147,-18.9970304,-57.6534397
Yamaha,FORTE MOTOS,RUA COLOMBO 12,CENTRO,79303-090,067,3232-3658,MS,CORUMBA,253,18818599000130,-19.003262,-57.641693
Yamaha,NOVA MOTOS - TRES PONTAS,AV OSWALDO CRUZ  691,CENTRO,37190-000,035,3291-7525,MG,TRES PONTAS,425,34161386000569,-21.3698026,-45.5095261
Yamaha,DISMOTO - AQUIDAUANA,RUA ESTEVAO ALVES CORREA  1750,ALTO,79200-000,067,3245-0000,MS,AQUIDAUANA,239,03509973000653,-20.484572,-55.797084
Yamaha,BLUE MOTOS,AV. LEOPOLDINO DE OLIVEIRA  2331,ESTADOS UNIDOS,38015-000,034,3322-6888,MG,UBERABA,312,27955804000109,-19.7522962,-47.9246538
Yamaha,CARMO MOTOS,RUA CARLOS ANTONIO GIORDANI 1561,HENRIQUE NERY,35700-750,031,3779-6100,MG,SETE LAGOAS,31,03815963000131,-19.47066,-44.2642007
Yamaha,CARMO MOTOS LTDA,RUA CARLOS ANTONIO GIORDANI  1561,HENRIQUE NERY,35700-750,031,3779-6100,MG,SETE LAGOAS,468,03815963000131,-19.47066,-44.2642007
Yamaha,MILMOTOS  - TIMOTEO,AV. JOVINO AUGUSTO DA SILVA  25,BROMELIAS,35180-514,031,3841-1612,MG,TIMOTEO,179,42850099000403,-19.5412607,-42.6516338
Yamaha,PIER 3 NAUTICA,RUA CARLOS CHAGAS  48  LETRA A ,CENTRO,39205-000,038,3754-3469,MG,TRES MARIAS,567,01934228000111,-18.2704265,-45.07466460000001
Yamaha,ASTRAL MOTOS TRES CORACOES,AV. DEPUTADO RENATO AZEREDO  385,NOSSA SRA APARECIDA,37417-360,035,3235-1133,MG,TRES CORACOES,269,17631136000283,-21.68665,-45.26173
Yamaha,MOTOVAM,RUA DR MANOEL ESTEVES  300,CENTRO,39800-090,033,3522-3149,MG,TEOFILO OTONI,15,18117739000143,-17.866477,-41.5108285
Yamaha,EMOCAO MOTOS,AV. LEITE DE CASTRO  2720,FABRICAS,36301-180,032,3373-5005,MG,SAO JOAO DEL REI,99,05913571000130,-21.11567,-44.244724
Yamaha,RECON,AV. MONSENHOR MANCINI  376,VILA DALVA,37950-000,035,3531-4845,MG,SAO SEBASTIAO DO PARAISO,87,03453732000125,-20.9042007,-46.9738462
Yamaha,NOVA MOTOS - SAO LOURENCO,AVENIDA COMENDADOR COSTA  97,CENTRO,37470-000,035,3291-7525,MG,SAO LOURENCO,424,34161386000488,-22.114567,-45.0546497
Yamaha,POUSONAUTICA,RUA ALVARO CALDAS  88/1 ,ESPLANDA,37550-000,035,3421-5519,MG,POUSO ALEGRE,570,08880363000170,-22.2480373,-45.9420118
Yamaha,SUL MOTOS P.ALE,AV. PREFEITO TUANY TOLEDO  791,FATIMA II,37553-571,035,3425-6600,MG,POUSO ALEGRE,194,11756966000170,-22.2341204,-45.9332569
Yamaha,MURAD MOTOS,AV. FRANCISCO VIEIRA MARTINS  1098,PALMEIRAS,35430-225,031,3817-1771,MG,PONTE NOVA,131,07585421000170,-20.4062267,-42.8916526
Yamaha,MOTOPATOS,RUA DR MARCOLINO  953,CENTRO,38700-160,034,3823-1877,MG,PATOS DE MINAS,171,17834920000108,-18.6163861,-46.50122210000001
Yamaha,SUL MOTOS PASSO,AV. JUCA SOTCKLER  1001,BELO HORIZONTE,37900-106,035,3521-2233,MG,PASSOS,218,13657442000157,-20.73673,-46.603317
Yamaha,UD MOTOS - PARA DE MINAS,AV. PRESIDENTE VARGAS  1409,SENADOR VALADARES,35661-044,037,3261-9450,MG,PARA DE MINAS,438,08821242000905,19.8631641,-44.5938111
Yamaha,UD MOTOS NOVA SERRANA,RUA DIMAS GUIMARAES  641,CENTRO,35520-012,037,3227-0790,MG,NOVA SERRANA,358,08821242000743,-19.8732716,-44.9865099
Yamaha,MOTO PATOS ,RUA DR MARCOLINO 953,CENTRO,38706-207,034,3823-1877,MG,PATO DE MINAS,540,17834920000108,-18.6163861,-46.50122210000001
Yamaha,RIO DOCE MOTOS,AV. DOS PIONEIROS  13,CENTRO,35200-000,033,3312-1818,MG,MUTUM,176,10637862000183,-19.814521,-41.439389
Yamaha,EAGLE - POCOS,AV. JOAO PINHEIRO  2613,CENTRO,37701-387,035,3721-7171,MG,POCOS DE CALDAS,147,08729606000174,-21.7856004,-46.5748771
Yamaha,BIG MOTOS,RUA SANTA RITA  325,CENTRO,36880-169,032,3722-2972,MG,MURIAE,82,04617620000125,-21.1349206,-42.3712838
Yamaha,CARMO MOTOS - MONTES CLAROS,AV. DULCE SARMENTO  864,ALTO SAO JOAO,39400318,031,3772-9006,MG,MONTES CLAROS,441,03815963000484,-16.7183809,-43.8545807
Yamaha,ASTRAL,AV. DR. SYLVIO MENICUCCI  1920,PRESIDENTE KENNEDY,37200-000,035,3822-8444,MG,LAVRAS,14,17631136000100,-21.2341945,-44.9942684
Yamaha,UD MOTOS,"RUA OLEGARIO MACIEL, 333",CENTRO,35590-000,037,3261-1144,MG,LAGOA DA PRATA,310,08821242000158,-20.0205928,-45.5462421
Yamaha,ROMA - LAGOA SANTA,AV. JOAO DAHER  1035,LUNDCEA,33400-000,031,3489-8318,MG,LAGOA SANTA,395,07452301001410,-19.6310098,-43.9030258
Yamaha,TINAUTO MOTOS,RUA FAUSTINO AMANCIO 10 LETRA B,SANTO ANTONIO,36900-000,033,3339-6674,MG,MANHUACU,254,20081660000151,-20.259726,-42.037733
Yamaha,K9 MOTOS,AV. WILSON ALVARENGA  746,CARNEIRINHOS,35930-004,031,3852-2224,MG,JOAO MONLEVADE,257,14975832000138,-19.815342,-43.154739
Yamaha,RIVER MOTOS,RUA TEREZA CRISTINA  165,MARIANO PROCOPIO,36080-120,032,3228-8700,MG,JUIZ DE FORA,143,08155471000180,-21.744882,-43.366013
Yamaha,MINAS MOTO SHOW,RUA ALVARO DA SILVA LOPES  317,SAO GONCALO,39445-006,038,3821-4020,MG,JANAUBA,219,06152703000111,-15.8068561,-43.3044497
Yamaha,STAR MOTOS,RUA CORONEL SERRAO  329,CENTRO,39480-000,038,3621-3377,MG,JANUARIA,74,04364567000106,-15.4820383,-44.3594488
Yamaha,NOVA MOTOS - ITAJUBA,AVENIDA PAULO CHIARADIA  8,SAO VICENTE,37502-028,035,3622-3139,MG,ITAJUBA,372,34161386000305,-22.4279824,-45.4568854
Yamaha,FORMULA MOTO,AV. DEZESSETE  249,CENTRO,38300-132,034,3269-7007,MG,ITUIUTABA,140,07786454000189,-18.9735449,-49.4546721
Yamaha,MIL MOTOS - IPATINGA,AV. PEDRO LINHARES GOMES 4000,FERROVIARIO,35160-290,031,3829-7260,MG,IPATINGA,98,42850099000322,-19.4866021,-42.5585146
Yamaha,COPEVEL,RUA APARECIDA  198,CENTRO,37800-000,035,3551-3782,MG,GUAXUPE,17,23831365000163,-21.3053315,-46.7086221
Yamaha,BLUE MOTOS - FRUTAL,"AV. EUVALDO LODI, 739",NOSSA SENHORA APARECIDA,38204034,34,3322-6888,MG,FRUTAL,606,27955804/000281,-20.0315276,-48.9301267
Yamaha,UD MOTOS,R PERNAMBUCO  880,CENTRO,35500-008,037,3212-0901,MG,DIVINOPOLIS,593,08821242000662,-20.1453318,-44.8978891
Yamaha,UD MOTOS - DIVINOPOLIS,RUA PERNAMBUCO  880,CENTRO,35500-008,037,3212-0901,MG,DIVINOPOLIS,43,08821242000662,-20.1453318,-44.8978891
Yamaha,MILBRATZ,RUA ESPIRITO SANTO  27,LOURDES,35030-150,033,3212-4200,MG,GOVERNADOR VALADARES,24,42850099000160,-18.8656064,-41.9535401
Yamaha,ITAMA MOTOS,AV. OSORIO SAMPAIO  217,VILA SANTA ROSA,35900-700,nan,,MG,ITABIRA,355,33735954000100,-19.6312152,-43.2240482
Yamaha,CARMO MOTOS - CURVELO,AV. BIAS FORTES  1430,VILA DE LOURDES,35790-000,038,3722-8285,MG,CURVELO,346,03815963000212,-18.7723242,-44.4326272
Yamaha,ARI MOTOS,RUA LEONTINO DA SILVA  80,SETOR NORTE,78645-000,066,3554-1161,MT,VILA RICA,5,03915293000125,-10.0036656,-51.4309582
Yamaha,ARI MOTOS,AV. BRASIL  673,SETOR NORTE,78645-000,066,3554-1161,MT,VILA RICA,457,03915293000125,-10.0036656,-51.4309582
Yamaha,CASA DO PESCADOR,AV. DAS FIGUEIRAS   329 ,CENTRO,78550-254,066,3531-2456,MT,SINOP,470,02336200000145,-11.8516297,-55.5106946
Yamaha,PILOTANDO SINOP,AV. DAS PALMEIRAS  1569,JARDIM IMPERIAL,78550-254,066,3511-0000,MT,SINOP,122,07197887000107,-11.8476215,-55.5060432
Yamaha,ATRACAO MOTOS,AV. COUTO MAGALHAES  1202-B,CENTRO,78110-970,065,3029-2000,MT,VARZEA GRANDE,153,07652911000142,-15.6466488,-56.1310154
Yamaha,MANARIN MOTOS,AV. PRESIDENTE TACREDO DE ALMEIDA NEVES  385-E,CENTRO,78300-000,065,3311-8800,MT,TANGARA DA SERRA,264,21358626000144,-14.616371,-57.489932
Yamaha,RIZZO MOTOS,AV. BLUMENAU  2444,CENTRO,78890-000,066,3545-1000,MT,SORRISO,270,01383537000140,-12.97875,-55.6689636
Yamaha,RIZZO MOTOS,AV. BLUMENAU  2444,CENTRO,78890-000,066,3545-1000,MT,SORRISO,576,01383537000140,-12.97875,-55.6689636
Yamaha,DICASA MOTOS - MINACU,AV. MATO GROSSO  S/N,CENTRO,76450-000,062,3379-2067,GO,MINACU,445,21201147000381,-13.5307622,-48.2220101
Yamaha,MOTOVESA,AV. AFONSO PENA  468,ALVORADA,75503-715,062,3247-7607,GO,ITUMBIARA,410,04215998000100,-18.4129055,-49.2168777
Yamaha,BELCAR MOTOS,AV. INDEPENDENCIA  5697,SETOR AEROPORTO,74070-010,062,3243-4200,GO,GOIANIA,102,06008462000131,-16.6641082,-49.2605185
Yamaha,BELCAR MOTOS - DETRAN,AV. ARMANDO DE GODOY  130,CIDADE JARDIM,74423-010,062,3272-5990,GO,GOIANIA,322,06008462000484,-16.36414322,-49.2247923
Yamaha,BELCAR MOTOS - PORTAL,AV. ANHANGUERA  14960  QUADRA 25  LOTE 05,SETOR SANTOS DUMONT,74463-350,062,3239-9000,GO,GOIANIA,304,06008462000301,-16.650974,-49.333591
Yamaha,DIAS MOTORS NAUTICA,AV. INDEPENDENCIA  5699,SETOR AEROPORTO,74070-010,062,3223-7155,GO,GOIANIA,495,00869175000130,-16.6673274,-49.2708366
Yamaha,FORMOTOS,PRACA ANISIO LOBO  143,CENTRO,73801-350,061,3631-0006,GO,FORMOSA,142,08112495000152,-15.5369723,-47.3357273
Yamaha,SAGA MOTO,AV T 7  414,SETOR OESTE,74140-110,062,3250-7222,GO,GOIANIA,578,02474948000104,-16.689538220330544,-49.27542767320818
Yamaha,SAGA MOTO,AV. T-7  414,SETOR OESTE,74140-110,062,3250-7200,GO,GOIANIA,93,02474948000104,-16.689538220330544,-49.27542767320818
Yamaha,CASA DO AGRICULTOR,AV. BERNARDO SAYAO  741 / 755,CENTRO,76300-000,062,3323-1505 ,GO,CERES,469,01520204000116,-15.286821,-49.6299077
Yamaha,RIO MOTORY,R B 16  S/N,ESTANCIA ITANHAGA,75680-462,064,3322-6680,GO,CALDAS NOVAS,431,42360694000118,-17.7518636,-48.631471
Yamaha,SAGA MOTO - INDEPENDENCIA,AV. INDEPENDENCIA  S/N. QUADRA 51 LOTE 02,INDEPENDENCIA,74967-145,062,3097-9808,GO,APARECIDA DE GOIANIA,432,02474948001500,-16.8231289,-49.2713494
Yamaha,SAGA MOTO - SETOR GARAVELO,AV. IGUALDADE QD 84 LT 09,SETOR GARAVELO,74930-530,062,3625-7200,GO,APARECIDA DE GOIANIA,251,02474948000961,-16.76366225,-49.34709328
Yamaha,SAGA MOTO - ANAPOLIS,AV SAO FRANCISCO DE ASSIS  203,JUNDIAI,75110-810,062,3098-0250,GO,ANAPOLIS,382,02474948001348,-16.3243776,-48.9666945
Yamaha,TURINHOS LAFAIE,AV. PROFESSOR MANOEL MARTINS  410,CAMPO ALEGRE,36400-111,031,3763-1667,MG,CONSELHEIRO LAFAIETE,123,07071894000150,-20.6552981,-43.7910537
Yamaha,ROMA - CONTAGEM,AV. JOAO CESAR DE OLIVEIRA  3228,ELDORADO,32240-000,031,3508-9200,MG,CONTAGEM,232,07452301000952,-19.914854,-44.077106
Yamaha,BIG MOTOS II,RUA JOAO PESSOA  247,VILA TEREZA,36772-020,032,3422-8881,MG,CATAGUASES,132,07483984000158,-21.3956886,-42.6945434
Yamaha,KYOTO MOTOS,"AV. AVENIDA PRESIDENTE TANCREDO NEVES, 1378",ESPLANADA,35300580,033,3321-2166,MG,CARATINGA,160,09233912000188,-19.7798468,-42.1344143
Yamaha,MIL MOTOS,RUA PAQUETA  86,GIOVANNI,35170-094,031,3849-9180,MG,CORONEL FABRICIANO,85,42850099000241,-19.5195409,-42.6333096
Yamaha,BIG MOTOS CARAN,AV. CAPITAO ANTONIO CARLOS DE SOUZA  75,SANTA MARIA,36800-000,032,3741-1224,MG,CARANGOLA,192,04617620000206,-20.7371153,-42.0309139
Yamaha,ROMA - BETIM,RUA INCONFIDENCIA  254,CENTRO,32600-100,031,3489 - 8353,MG,BETIM,373,07452301001339,-19.9665745,-44.1976496
Yamaha,CHIQUINHO NAUTICA,PC. MARCOS VALLE MENDES 36,ENG. JOSE MENDES JR,37930-000,037,3326-5194,MG,CAPITOLIO,478,64380538000151,-20.6366112,-46.0944845
Yamaha,NAUTICA BARAO ,AV. BARAO HOMEM DE MELO 1376,JARDIM AMERICA,30421285,031,3373-2612,MG,BELO HORIZONTE,550,01960847000180,-19.948735584976554,-43.96943567315938
Yamaha,O2 BH,AV. BARAO HOMEM DE MELO  4278,ESTORIL,30494-270,031,2512-2200,MG,BELO HORIZONTE,297,23738394000185,-19.965457,-43.955700
Yamaha,ROMA - AMAZONAS,AV. AMAZONAS  3011,GUTIERREZ,30441-001,031,3508-6400,MG,BELO HORIZONTE,138,07452301000286,-19.9305034,-43.9629295
Yamaha,ROMA - BARREIRO,AV. SINFRONIO BROCHADO  40,BARREIRO,30640-000,031,3508-6200,MG,BELO HORIZONTE,386,07452301001177,-19.9753134,-44.0152667
Yamaha,ROMA - CIDADE NOVA,AV. CRISTIANO MACHADO  1793,SILVEIRA,31140-535,031,3508-6300,MG,BELO HORIZONTE,163,07452301000448,-19.880341,-43.929964
Yamaha,ROMA - CONTORNO,AV. DO CONTORNO  3458,SANTA EFIGENIA,30110-018,031,3508-6200,MG,BELO HORIZONTE,300,07452301001258,-19.9259922,-43.9199785
Yamaha,ROMA - PEDRO I,AV. PEDRO I  1130,ITAPOA,31710-000,031,3508-6200,MG,BELO HORIZONTE,130,07452301000103,-19.8357825,-43.9646829
Yamaha,BIU MOTOS,RUA AUGUSTA DA COSTA PEREIRA  355,PLANALTO,36600-000,033,3731-3030,MG,ARACUAI,226,09263269000135,-16.8511077,-42.0649371
Yamaha,BIU MOTOS - ALMENARA,RUA ALVIMAR LOPES DOS SANTOS  40,CENTRO,39900-000,033,3731-4304,MG,ALMENARA,396,09263269000216,-16.1752897,-40.695117
Yamaha,NOVA MOTOS,AV. JOSE PAULINO DA COSTA  659,CRUZ PRETA,37132-204,035,3297-3040,MG,ALFENAS,348,34161386000135,-21.4411637,-45.9483967
Yamaha,DISMOTO,AV PRESIDENTE MEDICI - 4528,VILA BIRIGUI,78705-000,067,3318-6333,MT,RONDONOPOLIS,498,03509973000734,-16.466505,-54.6415455
Yamaha,DISMOTO ? RONDONOPOLIS??? ,AV PRESIDENTE MEDICI  4528,VILA BIRIGUI,78705-000,067,3318-6333,MT,RONDONOPOLIS,62,03509973000734,-16.466505,-54.6415455
Yamaha,TURINHOS MOTOS,AV. GOVERNADOR BIAS FORTES  301,PONTILHAO,36204-168,032,3332-3212,MG,BARBACENA,55,03593122000127,-21.2128084,-43.7519333
Yamaha,DISMOTO ? PRIMAVERA DO LESTE,AV. MINAS GERAIS  233,CIDADE PRIMAVERA I,78850-000,067,3056-2491,MT,PRIMAVERA DO LESTE,446,03509973000815,-15.5511024,-54.2997353
Yamaha,MACEIO NAUTICA,AMINADAB VALENTE 233,TRAPICHE DA BARRA,57010-374,082,3327-2180,AL,MACEIO,528,18187319000133,-9.6755605,-35.7591888
Yamaha,MOTOTEC,AV. FERNANDES LIMA  1089,FAROL,57055-000,082,2123-8080,AL,MACEIO,198,08983490000103,-9.6402841,-35.7355326
Yamaha,MOTOTEC - MACEIO,AV.COMENDADOR GUSTAVO PAIVA  3948,MANGABEIRAS,57037-285,082,2123-8080,AL,MACEIO,387,08983490000790,-9.6422772,-35.7111497
Yamaha,NAUTICA MARAGOGI,ROD ARABAIANA  28  QUADRA UNICA,CANTO DO MAR,57955-000,082,98216-3827,AL,MARAGOGI,553,29877429000143,-8.944480799999999,-35.2807624
Yamaha,VALE CENTER MOT,AV. NOVE DE MAIO  498 N  SETOR 01  QUADRA 02  LOTE 14,CENTRO,78320-000,066,3566-2020,MT,JUINA,411,12939753000146,-11.3993461,-59.4720904
Yamaha,VALE CENTER MOTOS,AV. NOVE DE MAIO  498 N - SETOR 01 QD 02 LOTE 14,MODULO 01,78320-000,066,3566-2020,MT,JUINA,594,12939753000146,-11.3993461,-59.4720904
Yamaha,MOTOFACIL - ARAPIRACA,RUA MARECHAL DEODORO DA FONSECA  673,BRASILIA,57313-010,082,3521-1680,AL,ARAPIRACA,197,32916685000107,-9.7584389,-36.6496547
Yamaha,NAUTICA CAMPO VERDE,RUA GENERAL OSORIO  1930,CENTRO,78200-000,065,3223-1125,MT,CACERES,551,06912021000160,-16.5790506,-57.825395
Yamaha,PILOT. GOSTOSO,AV. LUDOVICO DA RIVA NETO  3040,CENTRO,78580-000,066,3512-7600,MT,ALTA FLORESTA,262,02507550000127,-10.0110748,-56.2929381
Yamaha,PILOTANDO GOSTOSO,AV. LUDOVICO DA RIVA NETO  3040 -SALA B,CENTRO,78580-000,066,3512-7600,MT,ALTA FLORESTA,568,02507550000127,-10.0110748,-56.2929381
Yamaha,DVL MOTORES,AV MIGUEL SUTIL  14396 ,COOPHAMIL,78028-015,065,2129-0983,MT,CUIABA,500,30187503000189,-15.6178423,-56.1225025
Yamaha,KARRANCA NAUTICA,AV. FERNANDO CORREA COSTA  4319,CHACARA DOS PINHEIROS,78080-000,065,3661-2584,MT,CUIABA,520,20620636000143,-15.6284369,-56.0558868
Yamaha,LAMBARI NAUTICA,AV. FERNANDO CORREA COSTA   2100 ,JARDIM PETROPOLIS,78070-000,065,3627-2280,MT,CUIABA,522,26556076000191,-15.6163787,-56.0710458
Yamaha,MOTO CENTER - AGUA BOA,AV. ARAGUAIA  356,CENTRO,78635-000,066,3468-2050,MT,AGUA BOA,71,04198246000170,-22.2381566,-54.8071709
Yamaha,MOTOFORTE,AV. TEN. CEL. ESCOLASTICO  660,BANDEIRANTES,78010-200,065,3624-3884,MT,CUIABA,104,05699388000184,-15.6001171,-56.0890864
Yamaha,CRUZEIRO MOTORS,TRAVESSA ALFREDO SALES  92,CENTRO,69980-000,068,3322-1989,AC,CRUZEIRO DO SUL,106,06043028000192,-7.6671684,-72.6376882
Yamaha,CONQUISTA MOTO CENTER,RUA JOVINO DINOA    2360,CENTRAL,68900-075,096,3224-1710,AP,MACAPA,487,08020434000165,0.0345872,-51.0601026
Yamaha,CONQUISTA MOTOC,RUA JOVINO DINOA  2360,CENTRAL,68900-075,096,3224-1710,AP,MACAPA,41,08020434000165,0.0345872,-51.0601026
Yamaha,CRASA MOTOS,AV. JOSE JATAHY  677,FARIAS BRITO,60010-843,085,3288-3535,CE,FORTALEZA,79,04685620000162,-3.7272573,-38.5454202
Yamaha,MOTOFACIL - FORTALEZA,AV DOUTOR SILAS MUNGUBA  2710,ITAPERI,60714-242,085,3120-5000,CE,FORTALEZA,354,34762926000136,-3.7868662,-38.5495506
Yamaha,MUNDOSAM FORTALEZA,AV. BORGES DE MELO  1540-B,FATIMA,60415-762,085,3052-2255,CE,FORTALEZA,230,06032602001260,-3.757156,-38.532538
Yamaha,TERRA MOTOS,AV. VISCONDE DO RIO BRANCO  1998,JOAQUIM TAVORA,60055-171,085,3464-2021,CE,FORTALEZA,256,20543640000155,-3.7384787,-38.5258936
Yamaha,TERRA MOTOS FORTALEZA,AV. AMERICO BARREIRA  5365,DEMOCRITO ROCHA,60440-093,085,3464-2020,CE,FORTALEZA,280,20543640000236,-3.758560,-38.56333
Yamaha,RECOL MOTORS - SENA MADUREIRA,AV. BRASIL  371,CENTRO,69940-210,068,3212-8000,AC,SENA MADUREIRA,390,06265737000201,-9.0691809,-68.6618061
Yamaha,RECOL MOTORS,VIA CHICO MENDES  794,TRIANGULO VELHO,69906-210,068,3211-6074,AC,RIO BRANCO,110,06265737000112,-9.950329,-67.832489
Yamaha,CENTRAL NAUTICA,SGCV 6580 LOTE 9 N. 14  VIA DE ACESSO CARREFOUR SUL ,GUARA,71215-100,061,3361-3900,DF,BRASILIA,475,72578131000161,-15.8245065,-47.9547651
Yamaha,KISHI MOTOS,QNM 18  CONJUNTO H  LT 3,CEILANDIA NORTE,72210-188,061,3012-9850,DF,BRASILIA,287,25110879000155,-15.8131688,-48.0982997
Yamaha,KISHI MOTOS - SOBRADINHO,ST DNOCS QUADRA 1 CONJUNTO 01 LOTE  NUMERO 04,SOBRADINHO,73020-505,061,3012-9850,DF,BRASILIA,383,25110879000236,-15.6280059,-47.9193244
Yamaha,PREMIUM SERVICE,SETOR DE CLUBES ESPORTIVOS SUL - TRECHO 01 LOTE 03 PARTE B,ASA SUL,70200-001,061,3703-4709,DF,BRASILIA,571,05357287000125,-15.8321668,-47.8913326
Yamaha,SAGA MOTO,Q QS 03 EPCT LOTE 27 LOJA -  N 02 - TAGUATINGA ,AGUAS CLARAS,71953-000,061,3225-7200,DF,BRASILIA,579,02474948000457,-15.8463385,-48.0429726
Yamaha,CREDITOS PARRA,AV. DA AMIZADE  2017,CENTRO,69640-000,097,3412-3803,AM,TABATINGA,275,04044958000135,-4.223208102572029,-69.93634005984197
Yamaha,CREDITOS PARRA,AV. DA AMIZADE  2017 - CENTRO,CENTRO,69640-000,097,3412-3813,AM,TABATINGA,489,04044958000135,-4.223208102572029,-69.93634005984197
Yamaha,SAGA MOTO - GAMA,QUADRA 5 CONJUNTO F S/N LOTE 09,SETOR SUL (GAMA),72410-306,061,3255-7200,DF,BRASILIA,367,02474948001429,-15.8944246,-47.7981335
Yamaha,SAGA MOTO DF,QS 3 EPCT LOTE 27 LJ 2-AGUAS CLARAS,TAGUATINGA,71953-000,061,3255-7200,DF,BRASILIA,103,02474948000457,-15.8463385,-48.0429726
Yamaha,TECAR MOTOS,SIA TRECHO 1  870,ZONA INDUSTRIAL (GUARA),71200-010,061,3433-7846,DF,BRASILIA,317,29038786000118,-15.8037007,-47.961344
Yamaha,TECAR MOTOS,RUA Q SEPN  512 ,ASA NORTE,70760-500,061,3247-7610,DF,BRASILIA,366,29038786000207,-15.7509913,-47.8944283
Yamaha,TECAR MOTOS - CANDANGOLANDIA,ST DE POSTOS E MOTEIS SUL I (LADO PAR)  S/N,CANDANGOLANDIA,71727-800,061,3247-7610,DF,BRASILIA,444,29038786000380,-15.852536,-47.9719949
Yamaha,PRIME - CAUCAIA,RUA CORONEL CORREIA  1686,CENTRO,61600-004,085,98221-8181,CE,CAUCAIA,435,34762926000217,-3.7352727,-38.6577999
Yamaha,TVLAR MOTOS - MANACAPURU,PRACA 16 DE JULHO  88,CENTRO,69400-905,092,3622-3708,AM,MANACAPURU,404,14024658000814,-3.302473,-60.6208195
Yamaha,VOLKAR MOTORS DA AMAZONIA,AV EDUARDO RIBEIRO  757,CENTRO,69400-260,092,3361-2463,AM,MANACAPURU,597, 23026057000165,-3.3010531,-60.62379000000001
Yamaha,TVLAR MOTOS - ITACOATIARA,AV. PARQUE  1303,PEDREIRAS,69400-905,092,3622-3708,AM,ITACOATIARA,405,14024658000903,-3.1370944,-58.4487586
Yamaha,MOTOMAX V.VELHA,ROD CARLOS LINDEMBERG  1543,ARIBIRI,29120-568,027,3329-9661,ES,VILA VELHA,158,01388888000225,-20.349295,-40.321555
Yamaha,TVLAR MOTOS - COARI,AV. VIEIRA MARTINS  412,CHAGAS AGUIAR,69460-000,092,3622-3308,AM,COARI,436,14024658001039,-4.0883518,-63.1386933
Yamaha,BRAGA MOTOS - PARINTINS,"RUA CORONEL JOSÉ AUGUSTO, 2185",CENTRO,69151300,092,3303-2200,AM,PARINTINS,614,05216530001248,-2.6255855,-56.7403227
Yamaha,ALEGRA INDUSTRIA,AV. EFIGENCIO SALES  127 - B ,PARQUE 10,69057-050,092,3648-1641,AM,MANAUS,449,04571587000140,-3.0902188,-60.0107991
Yamaha,BENCHIMOL,AVE TORQUATO TAPAJOS 8251,TARUMA,69041-025,092,3133-3700,AM,MANAUS,460,04565289000570,-3.0363261,-60.0231935
Yamaha,BRAGA MOTOS,RUA RAMOS FERREIRA  2130,CENTRO,69020-080,092,3303-2200,AM,MANAUS,250,05216530000195,-3.128353,-60.011791
Yamaha,BRAGA MOTOS - COROADO,"AV COSME FERREIRA, 1243",COROADO,69082230,092,3303-2200,AM,MANAUS,615,05216530001086,-3.084437,-59.9831984
Yamaha,BRAGA MOTOS - GRANDE VITÓRIA,"TRAVESSA AJARAÍ, 0",GILBERTO MESTRINHO,69086725,92,3303-2200,AM,MANAUS,616,05216530001167,-3.0710101,-59.9400708
Yamaha,BRAGA MOTOS - MANOA,AV. FRANCISCO QUEIROZ  167,COLONIA STO ANTONIO,69093-000,092,2101-1873,AM,MANAUS,376,05216530000942,-3.0319413,-60.0043191
Yamaha,CREDITOS PARRA - CENTRO,AV. 21 DE ABRIL  249,CENTRO,69630-000,097,3415-5648,AM,BENJAMIN CONSTANT,233,04044958000216,-4.3775478,-70.0355056
Yamaha,BRAGA MOTOS - TANCREDO NEVES,AV AUTAZ MIRIM  317,TANCREDO NEVES,69087-215,092,3303-2200,AM,MANAUS,377,05216530000861,-3.050315,-59.9467803
Yamaha,MRD,AVENIDA CONSTANTINO NERY 2525 ANDAR 01 SALA 01,CHAPADA,69050-001,092,9984-2689,AM,MANAUS,548,03687482000198,-3.0946207,-60.02504319999999
Yamaha,TV LAR,RUA ALMIR PEDREIRAS 306,RAIZ,69063-330,092,3234-1125,AM,MANAUS,591,04561957001130,-15.5511024,-54.2997353
Yamaha,TV LAR,AV JOAQUIM NABUCO  78,CENTRO,69020-030,092,3663-5464,AM,MANAUS,592,14024658000652,-3.1307882,-60.0190814
Yamaha,TVLAR MOTOS CIDADE NOVA,AV. NOEL NUTELS 4,CIDADE NOVA,69096-000,092,3663-5464,AM,MANAUS,244,14024658000229,-3.034219,-59.962608
Yamaha,LINCAR NAUTICA,LAURO CUNHA FREIRE  220A,MONTE BELO,29053-200,027,3026-2277 ,ES,VITORIA,525,11348868000101,-20.313988,-40.3123722
Yamaha,MOTOMAX,AV. MARECHAL CAMPOS  538,BAIRRO DE CONSOLACAO,29045-460,027,3227-0973,ES,VITORIA,28,01388888000144,-20.3099074,-40.3078206
Yamaha,TVLAR MOTOS COMPENSA,AV. BRASIL  2337,COMPENSA,69036-110,092,3622-3709,AM,MANAUS,381,14024658000733,-3.1060617,-60.0552148
Yamaha,TVLAR MOTOS MAN,AV. ITACOATIARA  449,CACHOEIRINHA,69065090,092,36635464,AM,MANAUS,224,14024658000148,-3.136317,-60.003633
Yamaha,TVLAR MOTOS MANAUS,AV. AUTAZ MIRIM  5229,SAO JOSE,69085-000,092,3663-5464,AM,MANAUS,295,14024658000300,-3.0703243,-59.9540722
Yamaha,BRAMOK MOTOS,RUA EUCLIDES DA CUNHA  130,JARDIM LIMOEIRO,29164-032,027,3067-5555,ES,SERRA,259,20752094000162,-20.216496,-40.26118
Yamaha,LINCAR,AV. PREF. SAMUEL BATISTA CRUZ   2511 ,CONCEICAO,29902-100,027,3264-1076,ES,LINHARES,524,35999200000184,-19.3839153,-40.0669021
Yamaha,YAMA LIDER,RUA GOVERNADOR FRANCISCO LACERDA DE AGUIAR  50,NOSSA SENHORA DA CONCEICAO,29900-480,027,3371-0609,ES,LINHARES,156,09156343000114,-19.384869,-40.067301
Yamaha,MOTO MAIS - SÃO MATEUS,"ROD GOVERNADOR MARIO COVAS, 1270",BOA VISTA,29931200,073,9131-3091,ES,SÃO MATEUS,620,44555740000160,-18.7449518,-39.8639048
Yamaha,MOTOMAX CARIACI,ROD BR 262  KM 4 5,CAMPO GRANDE,29146-300,027,3336-1223,ES,CARIACICA,199,01388888000497,-20.3367307,-40.3787905
Yamaha,NAGANO MOTOS,RUA JOSE ROSA MACHADO  146,ABELARDO FERREIRA MACHADO,29309-278,028,3027-2800,ES,CACHOEIRO DE ITAPEMIRIM,302,26697787000186,-20.841379,-41.1153
Yamaha,MOTOMAX GUARAPA,AV. GOV. JONES DOS SANTOS NEVES  150,MUQUICABA,29215-002,027,3362-0313,ES,GUARAPARI,190,01388888000306,-20.650393,-40.507025
Yamaha,YAMA LIDER COLA,RUA JACINTO BASSETE  200,SAO SILVANO,29703-162,027,3721-1300,ES,COLATINA,207,09156343000700,-19.5278686,-40.6362159
Yamaha,I9 MOTOS - JACAREI,AV. SIQUEIRA CAMPOS  801,JARDIM ESPER,12307-000,012,3933-6900,SP,JACAREI,417,31105878000387,-23.2957515,-45.9604085
Yamaha,K. L. R. MOTOS,RUA PRUDENTE DE MORAES  420,CENTRO,18200-040,015,3271-8045,SP,ITAPETININGA,72,04500084000183,-23.586878,-48.05185
Yamaha,MOTO PRAIA,RUA JOAO MARIANO FERREIRA  255,JARDIM SAO PAULO,11740-000,013,3427-8181,SP,ITANHAEM,115,06313600000196,-24.18346,-46.7894585
Yamaha,MOTO LEME,AV. 29 DE AGOSTO  1147,CENTRO,13610-210,019,3571-1495,SP,LEME,51,03524743000159,-22.187702,-47.392954
Yamaha,CREMONESI NAUTICA ,R MAL. DEODORO DA FONSECA   612 ,CENTRO,13201-002,011,4521-2221,SP,JUNDIAI,490,10332300000121,-23.1836762,-46.8849379
Yamaha,MOTO ITALIA,AV. FERNANDO ARENS  676,VILA PROGRESSO,13202-570,011,4587-8360,SP,JUNDIAI,3,50944685000100,-23.202304,-46.87238
Yamaha,VIVA MOTOS,RUA DR CAVALCANTI  628,CENTRO,13201-003,011,4607-2727,SP,JUNDIAI,139,07831622000100,-23.19002,-46.880374
Yamaha,EVANDRO MOTOS,AV. ZEZINHO MAGALHAES  822,JARDIM ESTADIO,17203-380,014,3626-2174,SP,JAU,196,11986363000164,-22.300521,-48.5675375
Yamaha,MUNDYAMA,"AV. ROBERTO GEMIGNANI, 140",CENTRO,18400-510,015,3522-1920,SP,ITAPEVA,56,03784065000163,-23.9662754,-48.8802635
Yamaha,COMERCIAL ITUANA ,RUA FLORIANO PEIXOTO  323,CENTRO,13300-005,011,4013-8199,SP,ITU,485,02741141000190,-23.2610526,-47.3017842
Yamaha,COML ITUANA,"R. Floriano Peixoto, 323",CENTRO,13300005,011,4013-8199,SP,ITU,36,02741141000190,-23.2594302,-47.3050192
Yamaha,MOTO 36 - IBITINGA,AV. ENG IVANIL FRANCISCHINI 286-TR.3,JARDIM CENTENARIO,14940-460,016,3341-3885,SP,IBITINGA,204,58844796000220,-21.764108,-48.820281
Yamaha,MOTOMADIA,AV. PRESIDENTE VARGAS  1616,VILA VITORIA,13338-901,019,3894-3999,SP,INDAIATUBA,50,03545509000108,-23.085479,-47.1959484
Yamaha,MOTOMADIA - JARDIM MORADA DO SOL,AV. ARIO BARNABE 654,JARDIM MORADA DO SOL,13346-400,019,3935-4255,SP,INDAIATUBA,2,03545509000299,-23.117707,-47.230464
Yamaha,ANDRE CAR,RUA MONTENEGRO  423,PITANGUEIRAS,11410-040,013,3383-1313,SP,GUARUJA,89,05239477000148,-23.9921088,-46.2712711
Yamaha,CLAUMAR,AV. PREF. DOMINGOS DE SOUZA  166 ,JD. SANTA MARIA,11432-130,013,3384-1803,SP,GUARUJA,483,03697928000165,-23.9874373,-46.27866410000001
Yamaha,MIRAMAR,AV MIGUEL STEFANO  5540 ,CANTO DA ENSEADA,11440-530,013,3351-3600,SP,GUARUJA,538,68252667000115,-23.9902201,-46.242711
Yamaha,STAR JET,AV. MIGUEL STEFANO  5046 E 5071,RECANTO TORTUGA,11440-530,013,97409-2514,SP,GUARUJA ,584,66498056000126,-23.9902201,-46.242711
Yamaha,YAMAMOTO BOAT,AV. ADHEMAR DE BARROS  2131 - SALA 103 ,JARDIM PRIMAVERA,11430-003,013,3358-1222,SP,GUARUJA,600,10227834000198,-23.9905869,-46.2802652
Yamaha,YAMAMOTO MOTOR BOATS,RUA PRESIDENTE KENNEDY  1211,VILA SANTA ROSA,11431-001,013,9779-6332,SP,GUARUJA ,601,35136930000151,-23.9911805,-46.2839996
Yamaha,AVALON MOTORS,RUA MONSENHOR FELIPPO  345,CENTRO,12501-410,012,3133-3133,SP,GUARATINGUETA,193,11684296000123,-22.817453,-45.196186
Yamaha,JET MOTOS - IBIUNA,AV. VEREADOR BENEDITO CAMPOS  555,CENTRO,18150-000,015,3248-3500,SP,IBIUNA,282,09289600000439,-23.6526224,-47.2235298
Yamaha,MADIA MOTOSPORT - HORTOLANDIA,AV. ANHANGUERA  106,VILA REAL,13183-140,019,3897-3101,SP,HORTOLANDIA,384,12662592000277,-22.8585625,-47.181649
Yamaha,DIPE MOTOS - FRANCISCO MORATO,RUA ALCANTARA MACHADO  27,CENTRO,07910-160,011,4608-8284,SP,FRANCISCO MORATO,443,22277379000548,-23.280375,-46.746847
Yamaha,MOTO SHOP,"AV. TIRADENTES,  3003",JARDIM BOM CLIMA,07196-000,011,2468-8767,SP,GUARULHOS,145,01563028000108,-23.4557306,-46.52014399999999
Yamaha,MOTO SHOP - GUARULHOS,ESTRADA PRESIDENTE JUSCELINO KUBITSCHEK DE OLIVEIRA  4609,PARQUE DAS NACOES,07252-000,011,2303-5775,SP,GUARULHOS,281,01563028000280,-23.439235,-46.407466
Yamaha,MOTO SHOP GUARULHOS,AVENIDA TIRADENTES  3033 ,JARDIM BOM CLIMA,07196-000,011,2468-8767,SP,GUARULHOS,541,01563028000108,-23.4557306,-46.52014399999999
Yamaha,MOTO POINT - PROPRIA,AV. PREFEITO NELSON MELO  1354,CENTRO,49900-000,082,3551-4080,SE,PROPRIA,172,10479115000245,-10.21048,-36.83662
Yamaha,LIBER MOTOS,701 SUL AV.TEOTONIO SEGURADO 1 LT20,PLANO DIRETOR SUL,77017-002,063,3225-2895,TO,PALMAS,242,15827324000175,-10.2290,-48.3335
Yamaha,MOTOPALMAS,Q 103 SUL RUA SO 07 CONJ. 01 LOTE 42 - ACSO II ,CENTRO ,77015-030,063,3215-3828,TO,PALMAS,546,00899337000182,-10.1895242,-48.3418652
Yamaha,MOTOPALMAS,103 SUL RUA SO 7 S/N-CJ 01 LT 42,PLANO DIRETOR SUL,77015-030,063,3215-3828,TO,PALMAS,166,00899337000182,29.7690048,-95.1744903
Yamaha,NOVA ERA MOTOS,AV. GOIAS  2745,CENTRO,77410-010,063,3313-1213,TO,GURUPI,213,10723839000101,-11.7319256,-49.07164770000001
Yamaha,NOVA ERA MOTOS,AV GOIAS  2745,CENTRO,77410-010,066,3312-2170,TO,GURUPI,558,10723839000101,-11.7319256,-49.07164770000001
Yamaha,CONCORDE - ARACAJU II,AV. JOAO RODRIGUES  223,INDUSTRIAL,49065-450,079,3226-1600,SE,ARACAJU,430,07047328000536,-10.8986465,-37.0533336
Yamaha,CONCORDE MOTOS,AV. JOSE DA SILVA RIBEIRO FILHO 395,SIQUEIRA CAMPOS,49075-170,079,3259-0051,SE,ARACAJU,75,07047328000102,-10.9189841,-37.0715292
Yamaha,SPEED NAUTICA,ROD AYRTON SENNA  1830 - SALA B ,ZONA DE EXPANSAO (MOSQUEIRO) ,49008722,079,3214-0341,SE,ARACAJU,583,13311666000102,-10.9239722,-37.046846
Yamaha,FERRARI ARAGUAT,AV. ARAGUAIA  643,CENTRO,77950-000,063,3411-2560,TO,ARAGUATINS,195,11106169000228,-5.647090,-48.118853
Yamaha,CONCORDE - GLORIA,RUA SIMPLICIO FRANCISCO DE SOUZA  191,NOVO HORIZONTE,49680-000,079,3411-1286,SE,NOSSA SENHORA DA GLORIA,420,07047328000706,-10.2154559,-37.4249012
Yamaha,CONCORDE - ITABAIANA,AV. ALIPIO DE TAVARES DE MENEZES  4998,OVIEDO TEIXEIRA,49507-640,079,3431-1547,SE,ITABAIANA,34,07047328000374,-10.9259878,-37.6659231
Yamaha,FERRARI COMERCIO,AV. SANTOS DUMONT  1717,LOTEAMENTO MANOEL GOMES DA CUNHA,77818-010,063,3411-2500,TO,ARAGUAINA,504,26638072000152,-7.1908455,-48.2263026
Yamaha,FERRARI MOTOS,AV. SANTOS DUMONT  1717,LOTEAMENTO MANOEL GOMES DA CUNHA,77818-010,063,3411-2500,TO,ARAGUAINA,68,26638072000152,-7.1908455,-48.2263026
Yamaha,COML. MADIA,AV. DOM NERY  488,VERA CRUZ,13271-170,019,3829-6500,SP,VALINHOS,11,45406600000192,-22.9678363,-47.0025286
Yamaha,I9 MOTOS - TAUBATE,AV. INDEPENDENCIA  1064,INDEPENDENCIA,12031-001,012,3682-2221,SP,TAUBATE,349,31105878000204,-23.0380329,-45.5818696
Yamaha,JET BALBEK - VOTORANTIM,AV. GISELE CONSTANTINO  1238,PARQUE BELA VISTA,18110-650,015,3019-8586,SP,VOTORANTIM,202,11184394000363,-23.5422438,-47.4664092
Yamaha,MADIA MOTOSPORT - SANTA ROSA,AV. INDEPENDENCIA  4794,SANTA ROSA,13289-152,019,3876-1100,SP,VINHEDO,1,45406600000273,-23.032327,-46.979409
Yamaha,JET BALBEK - TATUI,RUA ONZE DE AGOSTO  11,CENTRO,18270-001,015,3251-7444,SP,TATUI,311,29091497000182,-23.3473109,-47.8467451
Yamaha,DIPE MOTOS - TABOAO,ESTRADA KIZAEMON TAKEUTI  2326,PARQUE SAO JOAQUIM,06775-003,011,4685-8787,SP,TABOAO DA SERRA,352,22277379000386,-23.6395801,-46.7981606
Yamaha,PARATY NAUTICA,R PROFESSOR THOMAZ GALHARDO  730 ,CENTRO,11680-000,012,3842-2619,SP,UBATUBA,563,26812301000103,-23.371399,-45.0186548
Yamaha,JET BALBEK,RUA ANTONIO FERRAZ  41,JARDIM LOS ANGELES,18076-005,015,3331 7040,SP,SOROCABA,107,11184394000100,32.747867,-97.36844699999999
Yamaha,JET BALBEK ,"AV SAO PAULO, 1351",ALÉM PONTE,18013002,015,3227-6296,SP,SOROCABA,517,11184394000100,-23.496357,-47.4395789
Yamaha,JET BALBEK - SOROCABA,AV. SAO PAULO  1351,ALEM PONTE,18013-002,015,3237 7296,SP,SOROCABA,191,11184394000282,-23.441829,-47.478819
Yamaha,MOTO FORTY SORO,AV. GENERAL CARNEIRO  1533,CERRADO,18043-004,015,3229-5500,SP,SOROCABA,241,16992692000131,-23.506071,-47.482515
Yamaha,POWER VEICULOS,"AVENIDA ANTONIO PASCHOAL, 2000",CENTRO,14170700,11,3256-2611,SP,SERTÃOZINHO,609,44207743/000102,-21.1452772,-47.9887374
Yamaha,I9 MOTOS,AV. CASSIANO RICARDO  1364,JARDIM ALVORADA,12240-540,012,33467474,SP,SAO JOSE DOS CAMPOS,323,31105878000115,-23.2241979,-45.9121025
Yamaha,PESCACA NAUTICA,AV. ARTHUR NONATO  6495,JARDIM MARACANA,15092-000,017,3226-3353,SP,SAO JOSE DO RIO PRETO ,565,00246704000220,-20.8241242,-49.3848321
Yamaha,TAG MOTOS,AV. BADY BASSIT  4875,CENTRO,15015-700,017,3232-0377,SP,SAO JOSE DO RIO PRETO,329,31345607000137,-20.8176255,-49.3948916
Yamaha,TAG MOTOS,AV. VERA CRUZ  557,PARQUE ESTORIL,15085-010,017,3232-0377,SP,SAO JOSE DO RIO PRETO,343,31345607000307,-20.8298582,-49.3853339
Yamaha,NN NAUTICA,AV. MAGNO DOS PASSOS BITTENCOURT  1909,BARRA DO UNA,11624-103,012,3867-2050,SP,SAO SEBASTIAO,557,15668632000103,-23.7616326,-45.7614282
Yamaha,WALMAR SERVICOS NAUTICOS,RUA CORONEL CLODOMIRO SANTANA  115 ,SAO FRANCISCO,11600-000,012,3862-1327,SP,SAO SEBASTIAO,598,56802457000174,-23.7736998,-45.506339
Yamaha,DIAMAR - LAPA,"RUA CLELIA, 1789",ÁGUA BRANCA,05042000,011,3801-1717,SP,SÃO PAULO,81,04190389000136,-23.5248867,-46.7000335
Yamaha,AND MOTOS -  ANHAIA MELLO,AV. PROFESSOR LUIZ IGNACIO ANHAIA MELLO 5246,JARDIM INDEPENDENCIA,03294-100,011,2116-4320,SP,SAO PAULO,353,05900460000270,-23.588491,-46.5452144
Yamaha,ANDREENSE,AV. MATEO BEI  2079,SAO MATEUS,03949-012,011,2010-8560,SP,SAO PAULO,167,09232074000128,-23.6004799,-46.4843155
Yamaha,DIAMAR - FREGUESIA DO O,AV. INAJAR DE SOUZA  69,LIMAO,02717-000,011,3647-8355,SP,SAO PAULO,413,04190389000560,-23.5045458,-46.6910221
Yamaha,VIME MOTOS SJRP,PRACA CAPITAO VICENTE DIAS  64/70,CENTRO,13720-000,019,3684-1015,SP,SAO JOSE DO RIO PARDO,181,10734409000195,-21.5955445,-46.8883467
Yamaha,CELMAR MOTOS - SAO VICENTE,AV. PREFEITO JOSE MONTEIRO  1126,JARDIM INDEPENDENCIA,11380-001,013,4040-4646,SP,SAO VICENTE,321,28471011000250,-23.9678677,-46.3726243
Yamaha,DIAMAR - VL PEREIRA CERCA,AV. GENERAL EDGAR FACO  1137,VILA PEREIRA CERCA,02924-401,011,3976-0155,SP,SAO PAULO,170,04190389000217,-23.496153,-46.707913
Yamaha,DIPE MOTOS - BUTANTA,AV. PROFESSOR FRANCISCO MORATO  5017,VILA SONIA,05521-300,011,3502-7707,SP,SAO PAULO,274,22277379000114,-23.599721,-46.741734
Yamaha,DIPE MOTOS - PINHEIROS,RUA HENRIQUE SCHAUMANN  644,PINHEIROS,05413-011,011,3082-1001,SP,SAO PAULO,392,22277379000467,-23.5592323,-46.6831938
Yamaha,DIPE MOTOS - VILLA LOBOS,AV. QUEIROZ FILHO  968,VILA HAMBURGUESA,05319-000,011,3831-9000,SP,SAO PAULO,324,22277379000203,-23.539244,-46.727986
Yamaha,FELTRIN - AEROPORTO,AV. WASHINGTON LUIS  5690,SANTO AMARO,04626-001,011,5033-3050,SP,SAO PAULO,96,52659638000132,-23.629702,-46.66827
Yamaha,FELTRIN E CARDAMONE - CAPAO REDONDO,AV. ELLIS MAAS  764  LOJA 01 E 02,CAPAO REDONDO,05859-000,011,2391-5128,SP,SAO PAULO,360,52659638000302,-23.6639994,-46.7699727
Yamaha,FELTRIN E CARDAMONE - GRAJAU,AV. DONA BELARMINA MARIM  4310,PARQUE BRASIL,04846-000,011,2391-5130,SP,SAO PAULO,361,13403866000276,-23.7561608,-46.6704490
Yamaha,FELTRIN E CARDAMONE - VILA PIRAJUSSARA,ESTRADA DO CAMPO LIMPO  5237,VILA PIRAJUSSARA,05787-000,011,4858-9211,SP,SAO PAULO,362,52659638000485,-23.6219894,-46.7589425
Yamaha,FELTRIN MOTOS,AV. ATLANTICA  155,SOCORRO,04768-000,011,5525-9444,SP,SAO PAULO,503,13403866000195,-23.6708412,-46.7120459
Yamaha,FELTRIN MOTOS  -JARDIM MARAJOARA,AV. INTERLAGOS  3124,JARDIM MARAJOARA,04660-005,011,3796-8845,SP,SAO PAULO,255,52659638000213,-23.678072,-46.684430
Yamaha,FELTRIN MOTOS - SOCORRO,AV. ATLANTICA  155,SOCORRO,04768-000,011,5525-9444,SP,SAO PAULO,67,13403866000195,-23.6708412,-46.7120459
Yamaha,GUIDON,AV. SANTOS DUMONT  602 / 612 ,LUZ,01101-000,011,3322-6188,SP,SAO PAULO,509,60893245000117,-23.5252549,-46.6310166
Yamaha,HORSE POWER ,RUA PARACAMBI  177   ,VILA REGEN FEIJO ,03033-020,035,3222-1746,SP,SAO PAULO,512,15633169000156,-23.5258578,-46.6254384
Yamaha,INDIANA ,AV. CONSELHEIRO CARRAO  519,VILA CARRAO,03403-001,011,2090-8875,SP,SAO PAULO,8,44769610000120,-23.545219,-46.5448945
Yamaha,INDIANA - ITAQUERA,RUA SABBADO D\\ ANGELO  1879,ITAQUERA,08215-655,011,2217-3218,SP,SAO PAULO,332,44769610000391,-23.5546732,-46.4449293
Yamaha,CELMAR MOTOS,AV. SENADOR FEIJO  673,VILA MATHIAS,11015-505,013,4040-4646,SP,SANTOS,305,28471011000179,-23.9517247,-46.3272737
Yamaha,MOTO PRAIA - SANTOS,PRACA CORONEL FERNANDO PRESTES  48,ESTUARIO,11020-010,013,3301-7788,SP,SANTOS,437,06313600000609,-23.9650298,-46.311414
Yamaha,CELMAR MOTOS - SAO JOAO DA BOA VISTA,AV. JOAO OSORIO  467,CENTRO,13870-251,013,3491-7540,SP,SAO JOAO DA BOA VISTA,440,28471011000500,-21.9804715,-46.798979
Yamaha,INDIANA - VILA FORMOSA,AVENIDA DOUTOR EDUARDO COTCHING  1490,VILA FORMOSA,03356-001,011,3647-8355,SP,SAO PAULO,370,11006804000203,-23.5671492,-46.5436815
Yamaha,INDIANA MOOCA,RUA DO ORATORIO  1452,ALTO DA MOOCA,03116-000,011,2319-9797,SP,SAO PAULO,186,11006804000114,-23.5645598,-46.5899844
Yamaha,J. CARLOS LIMA,AV ARICANDUVA 5064,VILA CALIFORNIA,03490-000,011,2726-5912,SP,SAO PAULO,515,20352655000136,-23.5568151,-46.5161868
Yamaha,JETCO,AV. DOS BANDEIRANTES  3730 ,PARQUE COLONIAL,04071-010,011,5042-9977,SP,SAO PAULO,518,05523508000198,-23.6173157,-46.661406
Yamaha,POSTO 6 MOTONAUTICA,AV. SAO CARLOS  1017,CENTRO,13560-010,016,3307-6648,SP,SAO CARLOS,54,03562381000190,-22.024247,-47.890588
Yamaha,AND MOTOS,AV. GOIAS  185,CENTRO,09521-310,011,4226-1496,SP,SAO CAETANO DO SUL,101,05900460000190,-23.614584,-46.577332
Yamaha,APIA MOTOS,AV. 02  941,CENTRO,13500-411,019,3522-4040,SP,RIO CLARO,238,10428286000164,-22.385674,-47.567797
Yamaha,PARAQUEDA NAUTICA,RUA 14  612- CENTRO,BOA MORTE,13500-130,019, 3522 2700,SP,RIO CLARO,561,56378706000146,-22.4156616,-47.5689615
Yamaha,MARESIAS INDUSTRIA ,AV. ARICANDUVA  5074 ,PARQUE MARIA LUISA ,03490-000,011,2726-5912,SP,SAO PAULO,534,04951634000180,-23.5568151,-46.5161868
Yamaha,MOTO SHOP - SAO MIGUEL,AV. SAO MIGUEL  8860,VILA NORMA,08070-000,011,2058-5100,SP,SAO PAULO,351,01563028000442,-23.4961355,-46.4524299
Yamaha,NACAR - MOEMA,ALAMEDA DOS NHAMBIQUARAS  1138,INDIANAPOLIS,04090-002,011,5055-7551,SP,SAO PAULO,398,28058398000560,-23.608519,-46.6631301
Yamaha,NACAR - SACOMA,RUA FAUSTO  636,VILA MOINHO VELHO,04285-080,011,2215-0533,SP,SAO PAULO,400,28058398000721,-23.6106318,-46.608685
Yamaha,NACAR - VILA DAS MERCES,AVENIDA PADRE ARLINDO VIEIRA  1387,JARDIM VERGUEIRO,04166-000,011,2946-5277,SP,SAO PAULO,399,28058398000640,-23.6328904,-46.6071073
Yamaha,TRALHAS & ISCAS,AV. NAVARRO DE ANDRARE   N 1886 ,PARQUE CLOVIS OGER,15775-000,017,3631-1460,SP,SANTA FE DO SUL,588,10315841000141,-20.243551,-50.9497647
Yamaha,ARMANDO MOTOCICLETAS,AV. ALDINO PINOTTI  565 - BLOCO A,CENTRO,09750-220,011,4126-2600,SP,SAO BERNARDO DO CAMPO,307,28972585000120,-23.689453,-46.551360
Yamaha,ABC NAUTICA,"AV. DOM PEDRO II, 1369",JARDIM,09080-110,011,4990-7756,SP,SANTO ANDRE,447,96666862000127,-23.635951,-46.5435712
Yamaha,ANDREENSE MOTOS,AV. DOM PEDRO I  1028,VILA PIRES,09110-000,011,4451-8710,SP,SANTO ANDRE,42,02592415000127,-23.6472571,-46.5368697
Yamaha,ANDREENSE MT II,RUA CORONEL ALFREDO FLAQUER 786 E 794,CENTRO,09020-041,011,4427-8200,SP,SANTO ANDRE,212,02592415000399,-23.6654321,-46.5225974
Yamaha,NACAR MOTORCYCLE,AV. JABAQUARA  1249,MIRANDOPOLIS,04045-002,011,5587-3939,SP,SAO PAULO,363,28058398000489,-23.615377,-46.6383483
Yamaha,NACAR MOTORCYCLES,AV. BANDEIRANTES  2059,VILA OLIMPIA,04553-011,011,3045-1366,SP,SAO PAULO,303,28058398000136,-23.607765,-46.6772166
Yamaha,NACAR MOTORCYCLES - CLODOMIRO AMAZONAS,RUA CLODOMIRO AMAZONAS  456,VILA NOVA CONCEICAO,04537-001,011,3814-9288,SP,SAO PAULO,428,28058398000802,-23.5882912,-46.6813938
Yamaha,NACAR MOTORCYCLES - IPIRANGA,AV. NAZARE  2002,IPIRANGA,04262-300,011,5061-0003,SP,SAO PAULO,331,28058398000217,-23.6018761,-46.609932
Yamaha,NACAR MOTORCYCLES - JOAO DIAS,AV. JOAO DIAS  1857,SANTO AMARO,04723-002,011,5641-0161,SP,SAO PAULO,333,28058398000306,-23.6456662,-46.711396
Yamaha,PODDIUM NAUTICA,AV. PROFESSOR ABRAAO DE MORAIS 2650 ,SAUDE,04123-001,011,3506-4400,SP,SAO PAULO,569,57936452000105,-23.6165285,-46.62754899999999
Yamaha,SIRI MOTOS,AV. RUDGE  998,BOM RETIRO,01134-000,011,3337-0066,SP,SAO PAULO,30,01101058000194,-23.5195937,-46.6524839
Yamaha,SIRI MOTOS - BARAO DE LIMEIRA,AL BARAO DE LIMEIRA  260,CAMPOS ELISEOS,01202-000,011,3362-3339,SP,SAO PAULO,371,01101058000356,-23.5344705,-46.6498922
Yamaha,SIRI MOTOS - SANTANA,AV. ZAKI NARCHI  1310,CARANDIRU,02029-001,011,2221-8777,SP,SAO PAULO,433,01101058000437,-23.5060534,-46.6172789
Yamaha,STAR MAR,RUA CHAGU 134 ,VILA FORMOSA,03357-020,011,2674-9516,SP,SAO PAULO,585,57660268000177,-23.5663345,-46.55260430000001
Yamaha,YAMAIS,AV. GUILHERME COTCHING  1940,VILA MARIA,02113-014,011,2633-6247,SP,SAO PAULO,146,08308164000192,-23.5132366,-46.5855801
Yamaha,YAMAIS - VILA MEDEIROS,AV. ROLAND GARROS  1206,VILA MEDERIOS,02235-001,011,2769-0333,SP,SAO PAULO,316,08308164000273,-23.4781068,-46.5758613
Yamaha,ITACUA MOTOS,AV. DR. FRANCISCO JUNQUEIRA  3179,RIBEIRANIA,14010-030,016,2137-7300,SP,RIBEIRAO PRETO,80,04776429000126,-21.1929338,-47.7978129
Yamaha,VENTURA EXPERIENCE,AV LUIZ EDUARDO TOLEDO PRADO  900 LOJA L2092,VILA DO GOLF,14027-250,016,3877-5694,SP,RIBEIRAO PRETO,596,28094088000177,-21.2351805,-47.83643130000001
Yamaha,HP MOTOS,RUA SINFRONIO COSTA  820,CENTRO,11900-000,013, 3821-5099,SP,REGISTRO,46,03382096000198,-24.4976631,-47.8414032
Yamaha,VALE NAUTICO ,RUA MANAUS  145,VILA RIBEIROPOLIS,11900-000,013,3821-3058 ,SP,REGISTRO,595,13513327000109,-24.4873849,-47.8032284
Yamaha,GP MOTOCICLE,AV. CORONEL JOSE SOARES MARCONDES  3200,JARDIM BONGIOVANI,19050-230,018,3928-6444,SP,PRESIDENTE PRUDENTE,403,39933439000102,-22.1482992,-51.4113329
Yamaha,OESTE MARINE  (Grupo Moto Oeste),RUA EMANOEL GOULART  3860,VILA SANTA HELENA ,19060-000,018,3223-9090,SP,PRESIDENTE PRUDENTE,559,10644881000137,-22.1199815,-51.4212211
Yamaha,CELMAR - PRAIA GRANDE,AV. PRESIDENTE KENNEDY  4460 - LOJA 07,AVIACAO,11702-480,013,4040-4646,SP,PRAIA GRANDE,344,28471011000330,-24.0153502,-46.4514569
Yamaha,MOTO PRAIA - PRAIA GRANDE,AV. SAO PAULO  1068,BOQUEIRAO,11701-380,013,3473-7400,SP,PRAIA GRANDE,263,06313600000510,-24.0039384,-46.419821
Yamaha,POSTO 6 MOTO NA,AV. PROFESSOR HENRIQUE M FONSECA JR 22,JARDIM PRIMAVERA,13660-070,019,3585-7072,SP,PORTO FERREIRA,240,03562381000433,-21.851262,-47.486839
Yamaha,MOTO PINDA,AV. NOSSA SENHORA DO BOM SUCESSO  946,SAO BENEDITO,12420-010,012,3642-4144,SP,PINDAMONHANGABA,38,61835286000110,-22.9336545,-45.4620721
Yamaha,EG MOTOR SPORT,AV. RUI BARBOSA  255,VILA REZENDE,13405-218,019,3437-3131,SP,PIRACICABA,272,22154222000100,-22.7116866,-47.6533865
Yamaha,J. C. MOTOS,RUA GENERAL OSORIO  638,CENTRO,13630-020,019,3561-2101,SP,PIRASSUNUNGA,37,74627571000197,-21.9962785,-47.4263977
Yamaha,MOTO PRAIA - PERUIBE,AV. PADRE ANCHIETA  1.827 - LOJA 01,STELA MARIS,11750-000,013,3455-1551,SP,PERUIBE,182,06313600000277,-24.318591,-46.994859
Yamaha,JET MOTOS,VIA ANTONIO LEITE DE OLIVEIRA  265,PAULAS E MENDES,18170-000,015,3244-1088,SP,PIEDADE,161,09289600000196,-23.7060927,-47.4262956
Yamaha,DICRAB MOTOS,AV. DOS AUTONOMISTAS  3509,CENTRO,06090-023,011,3682-0621,SP,OSASCO,267,21177275000175,-23.53212,-46.784849
Yamaha,CELMAR MOTOS - MOGI MIRIM,AV. VINTE E DOIS DE OUTUBRO  105,JARDIM SANTA HELENA,13806-050,013,3491-7540,SP,MOGI MIRIM,439,28471011000411,-22.4212618,-46.9674909
Yamaha,COMASA - OURINHOS,RUA DUQUE DE CAXIAS  505,VILA RECREIO,19911-621,014,3413-1453,SP,OURINHOS,426,52587938000315,-22.9710267,-49.8697503
Yamaha,MADIA PAULINIA,RUA BOLIVIA  254,JARDIM AMERICA,13140-709,019,3844-8060,SP,PAULINIA,356,00243361000592,-22.773041,-47.146686
Yamaha,ANDREENSE MAUA,RUA GENERAL OSORIO  82,VILA BOCAINA,09310-050,011,4541-5040,SP,MAUA,126,02592415000208,-23.6673543,-46.4570785
Yamaha,NOBRE MOTOS,AV. FRANCISO FERREIRA LOPES  245,VILA LAVINIA,08735-200,011,?4240-2400,SP,MOGI DAS CRUZES,326,31152562000184,-23.5335359,-46.2112907
Yamaha,NOBRE MOTOS,AV. VEREADORR NARCISO YAGUE GUIMARAES  1000 LJ 31,CENTRO CIVICO,08780-000,011,4240-1100,SP,MOGI DAS CRUZES,340,31152562000265,-23.5192966,-46.1830189
Yamaha,MOTO 36 - MATAO,AV. PADRE NELSON ANTONIO ROMAO  846,CENTRO,15990-195,016,3382-8193,SP,MATAO,337,58844796000815,-21.6046201,-48.3619066
Yamaha,COMASA,RUA ALVARES CABRAL  555,CENTRO,17501-100,014,3413-1453,SP,MARILIA,16,52587938000153,-22.219688,-49.942904
Yamaha,AZA MOTOS,RUA CERQUEIRA CESAR 589 ,JARDIM AMERICA,15600-000,017,3442-6766,SP,FERNANDOPOLIS,458,47963483000193,-20.2645369,-50.2862819
Yamaha,AZAMOTO,RUA CERQUEIRA CESAR  589,JARDIM AMERICA,15607-024,017,3442-6766,SP,FERNANDOPOLIS,9,47963483000193,-20.2645369,-50.2862819
Yamaha,AVALON MOTORS - CENTRO,RUA COMENDADOR CUSTODIO VIEIRA  396,CENTRO,12600-030,012,3152-5555,SP,LORENA,234,11684296000204,-22.729779,-45.121132
Yamaha,ARMANDO MOTOCICLETAS - DIADEMA,AV. FABIO EDUARDO RAMOS ESQUIVEL  2651,CANHEMA,09941-201,011,2761-6530,SP,DIADEMA,335,28972585000201,-23.67987085,-46.62157256
Yamaha,FRAGATA MOTORES,R NICOLAU CUQUI  524,VILA CARAGUATA,11535-000,013,3018-2064,SP,CUBATAO,507,12586904000120,-23.9356804,-46.4297666
Yamaha,DICRAB MOTOS - COTIA,RUA DR ANTONIO BASTOS  187,GRANJA CAROLINA,06700-178,011,4148-1333,SP,COTIA,327,21177275000256,-23.6022188,-46.9361405
Yamaha,EAGLE MOTOS - FRANCA,AV. DR. HELIO PALERMO  2587,ESTACAO,14405-130,016,3721-8933,SP,FRANCA,117,07071992000197,-20.5280891,-47.4028655
Yamaha,APIA MOTOS LIMEIRA,RUA CARLOS GOMES  1250,CENTRO,13480-013,019,3720-1080,SP,LIMEIRA,260,10428286000407,-22.569396,-47.407765
Yamaha,DICRAB MOTOS - CARAPICUIBA,"AV. INOCENCIO SERAFICO, 957",CENTRO,06320290,11,3801-1717,SP,CARAPICUÍBA,611,21177275000337,-23.5301749,-46.8377468
Yamaha,PESCACA NAUTICA,RUA BRASIL  1981,JARDIM BRASIL,15800-030,017,3531-1131,SP,CATANDUVA,564,00246704000149,-21.1404333,-48.9741729
Yamaha,TAG MOTOS,RUA SETE DE SETEMBRO  5,HIGIENOPOLIS,15805-070,017,3523-7580,SP,CATANDUVA,345,31345607000218,-21.1266511,-48.9678661
Yamaha,TEREZINHA PRIETO ROJAS ME,Rua Brasil  1999 - Centro - Catanduva - SP - CEP 15800-030,CENTRO,15800-030,nan,3531-1133,SP,CATANDUVA,587,07083756000190,-21.1404333,-48.9741729
Yamaha,CELMAR BOATS,AV. MIGUEL VARLEZ   180,CENTRO,11660-650,012,3882-3839,SP,CARAGUATATUBA,473,00863958000106,-23.6246843,-45.4190662
Yamaha,CLAUDIA CRISTINA MARKUNAS,AV. EURICO GASPAR DUTRA  235,PORTAL DO TABATINGA,11679-200,012,3883-4731,SP,CARAGUATATUBA,482,38077123000101,-23.5710894,-45.2705686
Yamaha,NOBRE MOTOS - CARAGUATATUBA,AV. RIO BRANCO  889,INDAIA,11665-600,011,?4727-4900,SP,CARAGUATATUBA,427,31152562000346,-23.6343953,-45.4303125
Yamaha,SADAN JET BRASIL RANCING,AV EURICO GASPAR DUTRA  N40,TABATINGA,11679-200,012,3884-4844,SP,CARAGUATATUBA,577,16798580000144,-23.5710894,-45.2705686
Yamaha,ESCOCIA & MARINHO ,RUA DO BOM RETIRO DOS DELL ORTI  33   ,CHACARA PORTAL DAS ESTANCIAS,12915-003,011,4033-6694,SP,BRAGANCA PAULISTA,501,72852411000116,-22.9795471,-46.5322177
Yamaha,LIGA NÁUTICA,"RUA DO BOM RETIRO DOS DELL'ORTI, 33",CHÁCARA PORTAL DAS ESTÂNCIAS,12915003,11,4033-6694,SP,BRAGANCA PAULISTA,618,41070842/000105,-22.979482910932155,-46.527722298729074
Yamaha,NIPPON MOTOS,AV DOUTOR PLINIO SALGADO  109,JARDIM AMERICA,12902-001,011,4032-2207,SP,BRAGANCA PAULISTA,341,33054346000121,-22.9173117,-46.5495278
Yamaha,MOTO 36 - BOTUCATU,RUA MAJOR MATHEUS  753,VILA DOS LAVRADORES,18609-083,014,3815-5015,SP,BOTUCATU,350,58844796000904,-22.8693996,-48.4497227
Yamaha,MADIA MOTOSP.II,AV. DAS AMOREIRAS  3213,JARDIM DO LAGO,13050-035,019,3267-5000,SP,CAMPINAS,208,12662592000196,-22.9320285,-47.0890477
Yamaha,MADIA MOTOSPORT,AV. BARAO DE ITAPURA  694,BOTAFOGO,13020-431,019,3236-8111,SP,CAMPINAS,26,00243361000169,-22.9277464,-47.0830439
Yamaha,MADIA MOTOSPORT - ABOLICAO,RUA DA ABOLICAO  600,PONTE PRETA,13041-445,019,3736-9500,SP,CAMPINAS,422,00243361000754,-22.9189135,-47.0547341
Yamaha,CAMPESCA,"RUA PRIMEIRO DE AGOSTO, 10-79",CENTRO,17010010,014,3232-3131,SP,BAURU,466,03250499000183,-22.3204663,-49.0684574
Yamaha,MOTO 36 - BAURU,RUA ARAUJO LEITE  12-12,CENTRO,17010-160,014,3222-3435,SP,BAURU,261,58844796000653,-22.321237,-49.069018
Yamaha,MARINA RIVIERA,R 4 (MANOEL JOSE PINTO)  269 - LOTE 06,SAO LOURENCO,11250-000,013,3396-0666,SP,BERTIOGA,536,26011116000110,-23.7756028,-46.0372508
Yamaha,TAG MOTOS,AVENIDA SETE  915,FORTALEZA,14780-240,017,3612-0666,SP,BARRETOS,365,31345607000480,-20.5645542,-48.5673577
Yamaha,NIPPON MOTOS,RUA JOAO PIRES  641,CENTRO,12940-500,011,4402-1707,SP,ATIBAIA,364,33054346000202,-23.1135365,-46.5516855
Yamaha,COMASA - ASSIS,AV. NOVE DE JULHOS  410 A,CENTRO,19800-020,014,3322-2103,SP,ASSIS,380,52587938000234,-22.6632509,-50.4196835
Yamaha,MOTO LEME - JD. CELINA,AV. AUGUSTA VIOLA DA COSTA  30,JARDIM CELINA,13606-020,019,3542-7418,SP,ARARAS,248,03524743000230,-22.359601,-47.355539
Yamaha,MOTO 36,AV. PADRE FCO SALES COLTURATO  1493,SANTANA,14801-250,016,3303-5353,SP,ARARAQUARA,18,58844796000149,-21.78235,-48.191904
Yamaha,ALTERNATIVA NAUTICA,AV BRASILIA 2273,NOVA YORQUE,16180-000,018,3622-9090,SP,ARACATUBA,451,13181164000104,-21.229364573823837,-50.43763834430273
Yamaha,GP MOTOCICLE - ARACATUBA,AV. LUIZ PEREIRA BARRETO  616,VILA BANDEIRANTES,16015-525,018,3608-4305,SP,ARACATUBA,423,39933439000293,-21.2123703,-50.4406157
Yamaha,ANDRETA,PRACA PADUA SALLES  183,CENTRO,13900-410,019,3807-5214,SP,AMPARO,10,46760500000122,-22.7012109,-46.7642903
Yamaha,DAHRUJ MOTOS - AMERICANA,"AV. NOVE DE JULHO, 594",SÃO DOMINGOS,13471290,19,3471-7800,SP,AMERICANA,610,45965655000302,-22.7339096,-47.3387984
Yamaha,MOTOYA,RUA NOVE DE JULHO  594,SAO DOMINGOS,13471-140,019,3471-7800,SP,AMERICANA,113,06369016000152,-22.7340187,-47.3357805
Yamaha,COML. MOTO-OESTE,AV. CARLOS PEGORARO  780  ,AREA COMERCIAL LUIZ STECHI,17800-000,018,3521-3448,SP,ADAMANTINA,486,55285407000102,-21.5791339,-51.03319330000001
